[
    {
        "name": "Sado Zai Motor",
        "address": "M.Ismail Plaza Dera Road Fazil Pur",
        "phone": "Mr.Khawar Khan 923336454041",
        "lat": 32.0953545,
        "lng": 74.3403946
    },
    {
        "name": "Three Star Trader",
        "address": "Kacha Khu Road, Abdulhakeem",
        "phone": "Mr. Adeel 923346888802",
        "lat": null,
        "lng": null
    },
    {
        "name": "Paradise Auto",
        "address": "CNG adda Manshera road Abotabad",
        "phone": "Mr.Muhammad Sulman 923469822212",
        "lat": 34.1492904,
        "lng": 73.2123244
    },
    {
        "name": "Zafar Trader",
        "address": "Shorkot Road, Pull 25",
        "phone": "Mr. Zafar Malik 923006762220",
        "lat": 32.3499798,
        "lng": 73.1203923
    },
    {
        "name": "Awan Motor",
        "address": "Hasilpur Road, Adda Bakshan Khan",
        "phone": "Mr. Safdar 923008875353",
        "lat": null,
        "lng": null
    },
    {
        "name": "Aman Trader",
        "address": "Near Shell Pump, Bhakkar Road, Adda jahan Khan",
        "phone": "Mr. Iniyatullah 923338050895",
        "lat": 27.4416326,
        "lng": 67.684075
    },
    {
        "name": "Al-Jannat Trader",
        "address": "Near Thanna Adda Kamir 1209-L,Sahiwal",
        "phone": "Mr. Asad Watto 923447272795",
        "lat": 30.6715098,
        "lng": 73.1110572
    },
    {
        "name": "Joiya Traders",
        "address": "Arifwala Road Adda Rang shah",
        "phone": "Mr. Iqbal 923458559085",
        "lat": 30.3452804,
        "lng": 73.1797017
    },
    {
        "name": "Shalimar Motors",
        "address": "Ketchery Road,Ahmed pur east",
        "phone": "Mr.Nusrullah 923066313344",
        "lat": 32.482621,
        "lng": 74.5511861
    },
    {
        "name": "M.A Corporation",
        "address": "A.P. Sial Mohallah Najafabad, A.P .Sial",
        "phone": "Mr.Mian Mohsin 923007947108",
        "lat": 28.3840891,
        "lng": 68.3549182
    },
    {
        "name": "Awais Motor",
        "address": "Rehman Palaza College Chowk Alipur",
        "phone": "Mr. Yaseen 923016982692",
        "lat": 29.3888569,
        "lng": 70.9175211
    },
    {
        "name": "Jeo Motors",
        "address": "old wapda house thesil Road Arifwala",
        "phone": "Mr. Mian Shreef 923216944014",
        "lat": 30.5748446,
        "lng": 73.0901885
    },
    {
        "name": "UMRANI AUTOS",
        "address": "BADIN",
        "phone": "JUAID ALI 923332523850",
        "lat": 24.6623289,
        "lng": 68.8384724
    },
    {
        "name": "Awami Motors",
        "address": "Bahawali Road near Caltax Pump,Bahawalnagar",
        "phone": "Mr. Rao Sarfraz 923217017581",
        "lat": 29.9935922,
        "lng": 73.2527621
    },
    {
        "name": "Al-Furqan Trader",
        "address": "Muslim Colony, Bahawalnagar",
        "phone": "MR. Mohsin 923009449816",
        "lat": 29.9935922,
        "lng": 73.2527621
    },
    {
        "name": "Al-sadiq motors",
        "address": "jamshed Palaza Chikkan wala chowk Bahawalpur",
        "phone": "haji nasir sb 923009681977",
        "lat": 30.1453455,
        "lng": 71.4923978
    },
    {
        "name": "Al-Rehmat Traders",
        "address": "Main ferozpur road, Bank Road Mojahid Road",
        "phone": "Mr. Muhammad Zubair 923002969797",
        "lat": 31.5267743,
        "lng": 74.2916598
    },
    {
        "name": "MADNI CENTER",
        "address": "Bank stop, 16KM ferozpur road , Lahore",
        "phone": "Mr. Mazhar 923004787602",
        "lat": 31.5656822,
        "lng": 74.3141829
    },
    {
        "name": "Malik Autos",
        "address": "Cantt Road Bannu",
        "phone": "Qaisar Khan 923340911965",
        "lat": 31.830402,
        "lng": 70.912329
    },
    {
        "name": "Sohaib pwr Centre",
        "address": "Howaid Road Howaid Adda Bannu",
        "phone": "Mr.Sohaib Khan 923319164243",
        "lat": 31.837932,
        "lng": 70.912562
    },
    {
        "name": "Waqar Electronic",
        "address": "islamabad mall opp col Amanullah road main murree road bara kahu",
        "phone": "Mr.Hasnain Ali 923003434766",
        "lat": 33.7366096,
        "lng": 73.1885646
    },
    {
        "name": "Al-Syed Autos",
        "address": "Near Vagon stand Depalpur Road , Basirpur",
        "phone": "Mr. Anayat Shah & Abbas Shah 923457115662",
        "lat": 30.5766567,
        "lng": 73.8398905
    },
    {
        "name": "Sheikh Traders",
        "address": "Sargodha Road Bhalwal",
        "phone": "TALAL TUFAIL 923335858525",
        "lat": 32.1950333,
        "lng": 72.8207034
    },
    {
        "name": "Chughti auto corporation",
        "address": "burgaid road bhimber ak",
        "phone": "Mr Sabir hussain 923018542228",
        "lat": 32.9545704,
        "lng": 74.0595821
    },
    {
        "name": "Welcome Motor",
        "address": "Joya road,Bure wala",
        "phone": "Mr. Zia 923074985624",
        "lat": null,
        "lng": null
    },
    {
        "name": "Al Shafi Motor",
        "address": "Vehari Bazar, Burewala",
        "phone": "Mr. M Shakeel 923006999480",
        "lat": 30.1588005,
        "lng": 72.6796973
    },
    {
        "name": "Al Haram motor",
        "address": "ghosia masjid road near mohra chowk g t road burhan",
        "phone": "Mr.Waheed Akhtar 923450202221",
        "lat": 34.006499,
        "lng": 71.5697891
    },
    {
        "name": "Iftikhar auto",
        "address": "Tehsail chowk jhelum road Chakwal",
        "phone": "Mr. Muhammad Farooq Gondal 923335901543",
        "lat": 32.9276269,
        "lng": 72.8066202
    },
    {
        "name": "Mashal leasing company",
        "address": "awqaf plaza peshawar road charsadda",
        "phone": "Mr.Asad Ali 923009350946",
        "lat": 34.2199191,
        "lng": 71.5663966
    },
    {
        "name": "Ryan Trader",
        "address": "Block # 02 Exchange Road, Chichwatni",
        "phone": "Asghar Ali 923006920097",
        "lat": null,
        "lng": null
    },
    {
        "name": "Faizan Traders",
        "address": "Sargodha Road, Chiniot",
        "phone": "Mr. Haji Umer Daraz 923017977492",
        "lat": 31.7218022,
        "lng": 72.9891487
    },
    {
        "name": "Faisal Trader",
        "address": "highway Road Chishtian",
        "phone": "Mr. Ashraf 923008240125",
        "lat": 29.6015436,
        "lng": 72.8408631
    },
    {
        "name": "New Usman Autos",
        "address": "Basket ball Ground Chishtian",
        "phone": "Mr. Zaman 923005008480",
        "lat": null,
        "lng": null
    },
    {
        "name": "Umair Autos",
        "address": "highway Road Chishtian",
        "phone": "Mr. Mohsain 923004494545",
        "lat": 29.6015436,
        "lng": 72.8408631
    },
    {
        "name": "Shah G Pwr Centre",
        "address": "Layyah Road Chobara",
        "phone": "Mr. Thaseen Shah 923451411412",
        "lat": 32.4664601,
        "lng": 74.8439775
    },
    {
        "name": "Adnan Motors & Autos",
        "address": "Nawan Kot Road Choubara",
        "phone": "Mr. M. Feroz 923454453932",
        "lat": null,
        "lng": null
    },
    {
        "name": "Aziz auto",
        "address": "swabi jahangira road chota lahore",
        "phone": "Mr.Hamid ali 923349449525",
        "lat": 34.0493802,
        "lng": 72.3646955
    },
    {
        "name": "New Prince auto",
        "address": "Kashmir road tehsi kalar syden chou khalsa ditt Rawalpindi",
        "phone": "Mr. Shahid Hamid 923009509054",
        "lat": 33.4145534,
        "lng": 73.3782841
    },
    {
        "name": "Asad Trader",
        "address": "Layyah Road Chowk Azam",
        "phone": "Mr.Haji M.Ashraf 923417021759",
        "lat": 30.9656881,
        "lng": 71.1979298
    },
    {
        "name": "Ideal Motor",
        "address": "M.M Road Chowk Munda",
        "phone": "Mr. Ghulam Murtaza 923414444044",
        "lat": 30.5217658,
        "lng": 71.5458112
    },
    {
        "name": "Pak Friends Traders",
        "address": "Chowk Sarwar Shaeed Chowk Kot Addu",
        "phone": "Mr.M.Asif 923014461200",
        "lat": 30.4692602,
        "lng": 70.9678776
    },
    {
        "name": "Bukhari Motors",
        "address": "Pakistan Chowk Gool Market Block W D.G Khan",
        "phone": "Mr.Syed Tasawar hussain 923457140784",
        "lat": 33.6833501,
        "lng": 73.0512272
    },
    {
        "name": "Makhdoom Motors",
        "address": "Block 12 Near Pakistani Chowk D.G.K",
        "phone": "Mr. Muhammad Sharif 923338814512",
        "lat": 33.7292781,
        "lng": 73.0934524
    },
    {
        "name": "Mehboob Autos",
        "address": "Near Eid Gah Pakistani Chowk D.G khan",
        "phone": "Mr. Ghalib 923216797007",
        "lat": 33.6833501,
        "lng": 73.0512272
    },
    {
        "name": "Pasha Pwr Centre",
        "address": "Circular Road",
        "phone": "Mr.Arif 923219612025",
        "lat": 31.5773968,
        "lng": 74.3095114
    },
    {
        "name": "Niazi Motors",
        "address": "Fuwara Chowk Shumali Circular Road D.I.Khan",
        "phone": "Faiz Ullah Niazi 923449383537",
        "lat": 33.6681592,
        "lng": 73.0745046
    },
    {
        "name": "Hussnain Motor",
        "address": "Mir complux post office tehsil dadyal mirpur ak",
        "phone": "Mr. Waqar Ahmed 925827463051",
        "lat": 33.1486351,
        "lng": 73.7482102
    },
    {
        "name": "Sahaib Spr Pwr Center",
        "address": "Chishtian Road Near PSO Pump,Daharanwala",
        "phone": "Mr. Zaffar iqbal 923024689410",
        "lat": null,
        "lng": null
    },
    {
        "name": "Wazir Motors",
        "address": "By Pass Road Daherki",
        "phone": "Wazir Maher 923337244549",
        "lat": null,
        "lng": null
    },
    {
        "name": "Aliyan Trader",
        "address": "Allahabad Colony Harand Road Dajal",
        "phone": "Mr. Abu Bakar 923376284444",
        "lat": 31.745465,
        "lng": 70.974226
    },
    {
        "name": "Daha Pwr Centre",
        "address": "Daha Market Jampur Road Dajal",
        "phone": "Mr. Pervaiz 923346732832",
        "lat": 31.745465,
        "lng": 70.974226
    },
    {
        "name": "Gosha Khan Corporation",
        "address": "Near Animal hospital, Bhakkar Road, Darya Khan",
        "phone": "Mr. Gul Shah Khan 923067951267",
        "lat": 31.7855908,
        "lng": 71.1088112
    },
    {
        "name": "Z.S traders",
        "address": "near boy college chowk tehsil gujar khan daultala",
        "phone": "Mr. Shahid Akhtar 923455336224",
        "lat": 33.2510475,
        "lng": 73.1402047
    },
    {
        "name": "Potohar daultala motor",
        "address": "near police choki main road daultala , Mr",
        "phone": "Ch khuram Pervaiz 923005569783",
        "lat": 18.0842067,
        "lng": -15.9818685
    },
    {
        "name": "Arsalan Auto",
        "address": "Katchery Road, Depalpur",
        "phone": "923007534404",
        "lat": 30.6691771,
        "lng": 73.6513733
    },
    {
        "name": "Al-Falah Motors",
        "address": "Dhalian Chowk, Kharian Road, Dinda",
        "phone": "Mr. Sheikh Ashraf & Sheikh Jamil 923007740272",
        "lat": null,
        "lng": null
    },
    {
        "name": "Khawaja Motor",
        "address": "Rizwan Market Highway road,Dunga Bunga",
        "phone": "Mr. Muzamil Latif 923017913831",
        "lat": 29.7537082,
        "lng": 73.2446925
    },
    {
        "name": "Ittefaq Spr Pwr Motor",
        "address": "Kehror Pakka Road,Dunyapur",
        "phone": "Mr Ramzan 923017474558",
        "lat": 29.8068303,
        "lng": 71.7210552
    },
    {
        "name": "Al-Kareem Pwr Centre",
        "address": "Dokota Road, Dunyapur",
        "phone": "Mr. Sajjad 923456005149",
        "lat": 29.8068303,
        "lng": 71.7210552
    },
    {
        "name": "Muhammadi Motors",
        "address": "Highway Road,Faqirwali",
        "phone": "Mr. Sajjad 923008699595",
        "lat": 29.4674919,
        "lng": 73.0360814
    },
    {
        "name": "Hamza Trader",
        "address": "Multan Mianwali Road Fatehpur",
        "phone": "Mr. Ch Hameed 923006323300",
        "lat": 31.1734115,
        "lng": 71.2109358
    },
    {
        "name": "Ahmed Bilal Motors",
        "address": "Dera Road Fazilpur",
        "phone": "Mr. Ali Ahmed 923336432646",
        "lat": 29.3027893,
        "lng": 70.4226465
    },
    {
        "name": "Aftab Motors",
        "address": "Khanpur Road Feroza",
        "phone": "Mr.H.Binyameen 923037645942",
        "lat": null,
        "lng": null
    },
    {
        "name": "Lasani Motors",
        "address": "Highway Road,Fortabbas",
        "phone": "Mr. hafiz Sajid 923007926588",
        "lat": 29.5548395,
        "lng": 72.846964
    },
    {
        "name": "Saim Motors",
        "address": "Highway Road Fortabbas",
        "phone": "Mr.Shahzab 923007162604",
        "lat": null,
        "lng": null
    },
    {
        "name": "Jawad Autos",
        "address": "Ranipur road Gambat",
        "phone": "Ahmed-u-din 923002005954",
        "lat": 27.3295939,
        "lng": 68.5170096
    },
    {
        "name": "Ali Motor Showroom",
        "address": "Mettelo Rord Ghotki",
        "phone": "Hidayattullah 923000813651",
        "lat": null,
        "lng": null
    },
    {
        "name": "Ali Brother Electronics",
        "address": "496, 2, DII, Azmat Chowk, Green Town, Lahore",
        "phone": "Mr. Sanahallah 923218883898",
        "lat": 31.5656822,
        "lng": 74.3141829
    },
    {
        "name": "Makkah auto",
        "address": "G T road near burf khana gujar khan",
        "phone": "Mr. Zafar mehmood 923337482722",
        "lat": 33.2590018,
        "lng": 73.3076163
    },
    {
        "name": "Alvi auto",
        "address": "chaudhary plaza near tetephone exchange g.t road gujar khan",
        "phone": "Mr.Ibrar Hussain 923335516029",
        "lat": 33.2590018,
        "lng": 73.3076163
    },
    {
        "name": "Pakistan Autos",
        "address": "Opp. Din Plaza Near Gallah mandi G,T Road , Gujranwala",
        "phone": "ATTIQ ASLAM BUTT 923348505050",
        "lat": 32.1525312,
        "lng": 74.1933745
    },
    {
        "name": "Musa Traders",
        "address": "Deen Plaza GT Road , Gujranwala",
        "phone": "Mr. Jawad Dar 923111650000",
        "lat": 32.1525312,
        "lng": 74.1933745
    },
    {
        "name": "New Ali Motors",
        "address": "Prince Chowk,Near Jamiya Shah Welayat Masjid, Jinnah Road, Gujrat",
        "phone": "Mr. Ijaz Ahmad 923338470900",
        "lat": 32.5627852,
        "lng": 74.064535
    },
    {
        "name": "Mughal Motors",
        "address": "G T S Chowk, Purana Adda, Near Thana A Division, Gujrat",
        "phone": "Mr. Tariq Mehmood 923016202261",
        "lat": 32.5627852,
        "lng": 74.064535
    },
    {
        "name": "Jubilee Motors",
        "address": "Jinnah Road Near Jinanh Hospital, Gujrat",
        "phone": "MR. SHAHID AFZAL 923026290172",
        "lat": 32.5627852,
        "lng": 74.064535
    },
    {
        "name": "EHTISHAM TRADERS",
        "address": "Near Adda Tarar Travel Gujranwala Road Hafizabad",
        "phone": "GULFFAM HUSSAIN ALVI 923007527630",
        "lat": 32.211611,
        "lng": 73.575613
    },
    {
        "name": "Bilal sp centre",
        "address": "Rehna plaza g t road Haripur",
        "phone": "Mr. Zahid Mehmood 923005127972",
        "lat": 33.7690615,
        "lng": 73.0717605
    },
    {
        "name": "Ali Trader",
        "address": "Near GPO Haroonabad",
        "phone": "Mr. Ahmad Ali 923369992900",
        "lat": null,
        "lng": null
    },
    {
        "name": "Sadat motor",
        "address": "Al kareem market laibmail near toll plaza hasanabdal",
        "phone": "Mr. Zawar shah 923009770590",
        "lat": null,
        "lng": null
    },
    {
        "name": "Shaheen Corp",
        "address": "Bahawalpur Road, Hasilpur",
        "phone": "Mirza Munawar 923017927674",
        "lat": 29.6750814,
        "lng": 72.4927017
    },
    {
        "name": "Pakistan Motors",
        "address": "Head Sulemani Road Haveli Lakha",
        "phone": "Irfan 923334486188",
        "lat": 30.4571452,
        "lng": 73.6773723
    },
    {
        "name": "NAZ MOTORS",
        "address": "Hujra Road, Cola Road, Haveli Lakha",
        "phone": "HAJI MUHAMMAD AMEEN NAZ 923347417421",
        "lat": 30.4571452,
        "lng": 73.6773723
    },
    {
        "name": "Al Badar Electronics",
        "address": "Plot # E-137,Block 11 Gulshan E Iqbal Juma Khan Goth Near Madina Masjid Safari Park",
        "phone": "Hassan Khan 923012298126",
        "lat": 24.9205008,
        "lng": 67.1114464
    },
    {
        "name": "AL-WALI AUTOS",
        "address": "Sakran Road , Hub House# 01 , Al Hussain Market",
        "phone": "KHAIR MUHAMMAD 923332105284",
        "lat": 31.5763998,
        "lng": 74.3301862
    },
    {
        "name": "IQRA AUTOS",
        "address": "Hub Sakran Road",
        "phone": "SHAH MUHAMMAD 923132821655",
        "lat": 25.0209343,
        "lng": 66.8772831
    },
    {
        "name": "NADEEM BROTHERS",
        "address": "Plot No.462-A, Sector 11, New \"L\" Block, Bab Willayat Ali Shah College, Near Al-Khalil, Orangi Nadeem Khan",
        "phone": "NADEEM 923138954453",
        "lat": 24.9287532,
        "lng": 67.0763929
    },
    {
        "name": "ZAM ZAM TRADERS",
        "address": "Qazi Street, Hub Chowki Sakran Road",
        "phone": "AMIN JAN 923363505011",
        "lat": 25.0209343,
        "lng": 66.8772831
    },
    {
        "name": "Asad Autos",
        "address": "Nazd Honda Showroom , New sabzi mandi , hujra Shah Muqeem",
        "phone": "Mr. Habib Ullah 923006957941",
        "lat": 30.7393828,
        "lng": 73.8245631
    },
    {
        "name": "SHAZI AUTOS",
        "address": "KHOKAR MUHALLAH",
        "phone": "AMJAD 923002034076",
        "lat": null,
        "lng": null
    },
    {
        "name": "NEW SUER AUTOS",
        "address": "KHOKAR MUHALLAH",
        "phone": "IQBAL QURASHI 923120105594",
        "lat": null,
        "lng": null
    },
    {
        "name": "BISMILLHA AUTOS",
        "address": "KHOKAR MUHALLAH",
        "phone": "M.KASHIF 923443359626",
        "lat": null,
        "lng": null
    },
    {
        "name": "WAZEER AUTOS",
        "address": "KHOKAR MUHALLAH",
        "phone": "MR.NUMAN ALI SHAIKH 923133036963",
        "lat": null,
        "lng": null
    },
    {
        "name": "WAZEER AUTOS",
        "address": "KHOKAR MUHALLAH",
        "phone": "MR.NUMAN ALI SHAIKH 923000492263",
        "lat": null,
        "lng": null
    },
    {
        "name": "SANI AUTOS",
        "address": "KHOKAR MUHALLAH",
        "phone": "MR.HAJI RIZWAN 923468139854",
        "lat": null,
        "lng": null
    },
    {
        "name": "SALMAN AUTOS",
        "address": "KHOKAR MUHALLAH",
        "phone": "MR.TANVEER 923463824347",
        "lat": null,
        "lng": null
    },
    {
        "name": "JUNAID ALI AUTOS",
        "address": "KHOKAR MUHALLAH",
        "phone": "MR. WAJAHAT ALI 923362910022",
        "lat": null,
        "lng": null
    },
    {
        "name": "LATIF AUTOS",
        "address": "KHOKAR MUHALLAH",
        "phone": "MR.LATIF JAGIRANI 923362600078",
        "lat": null,
        "lng": null
    },
    {
        "name": "YAHYA AUTOS",
        "address": "KHOKAR MUHALLAH",
        "phone": "MR.HASSAM 923342016700",
        "lat": null,
        "lng": null
    },
    {
        "name": "M.ASHRAF MALIK AUTOS",
        "address": "KHOKAR MUHALLAH",
        "phone": "MR ASHRAF MALIK 923341314515",
        "lat": null,
        "lng": null
    },
    {
        "name": "UMMAR AUTOS",
        "address": "KHOKAR MUHALLAH",
        "phone": "MR.ABDUL HAKIM KHAN 923337788123",
        "lat": null,
        "lng": null
    },
    {
        "name": "PANHWAR AUTOS",
        "address": "KHOKAR MUHALLAH , AHSAN ALI PANHWAR",
        "phone": "923333578584",
        "lat": 28.2410253,
        "lng": 68.4690999
    },
    {
        "name": "GULISTAN SUPER POWER CENTER",
        "address": "KHOKAR MUHALLAH",
        "phone": "M.IYAS 923332921418",
        "lat": null,
        "lng": null
    },
    {
        "name": "RAHEEM AUTOS",
        "address": "KHOKAR MUHALLAH",
        "phone": "MR. ZULFIQUARE ALI 923332883589",
        "lat": null,
        "lng": null
    },
    {
        "name": "AL MUQEET AUTOS",
        "address": "KHOKAR MUHALLAH",
        "phone": "MR. IRSHAD 923332661610",
        "lat": null,
        "lng": null
    },
    {
        "name": "RAHMAN AUTOS",
        "address": "KHOKAR MUHALLAH",
        "phone": "MR.ABDUL REMAN JAGRANI 923332633346",
        "lat": null,
        "lng": null
    },
    {
        "name": "IFTIKHAR AUTO PALACE",
        "address": "KHOKAR MUHALLAH",
        "phone": "AFTAB QURESHI 923332603896",
        "lat": null,
        "lng": null
    },
    {
        "name": "ROYAL AUTOS",
        "address": "KHOKAR MUHALLAH",
        "phone": "MR.JAISO MAL 923322078418",
        "lat": null,
        "lng": null
    },
    {
        "name": "GUL KHAN AUTOS",
        "address": "KHOKAR MUHALLAH",
        "phone": "MR. GUL KHAN 923312681997",
        "lat": null,
        "lng": null
    },
    {
        "name": "AS HABI AUTOS",
        "address": "KHOKAR MUHALLAH",
        "phone": "MR. HAJI MUSHTAQ QURESHI 923213275003",
        "lat": null,
        "lng": null
    },
    {
        "name": "MEHTAB AUTOS",
        "address": "KHOKAR MUHALLAH",
        "phone": "MEHTAB 923163033507",
        "lat": null,
        "lng": null
    },
    {
        "name": "ABBAS AUTO PALACE",
        "address": "KHOKAR MUHALLAH",
        "phone": "MR.KAMRAN ALI 923123071755",
        "lat": null,
        "lng": null
    },
    {
        "name": "HABIB AUTOS",
        "address": "KHOKAR MUHALLAH",
        "phone": "MR.HABIB JAGIRANI. 923120278303",
        "lat": null,
        "lng": null
    },
    {
        "name": "M.N.TRADERS",
        "address": "KHOKAR MUHALLAH",
        "phone": "MR.IBAD MEHMOOD 923113061610",
        "lat": null,
        "lng": null
    },
    {
        "name": "FARAZ AUTOS",
        "address": "KHOKAR MUHALLAH",
        "phone": "MR.SHAHBAZ ALI SANGHRASI 923023003011",
        "lat": null,
        "lng": null
    },
    {
        "name": "SURKH BUKHARI AUTOS",
        "address": "KHOKAR MUHALLAH",
        "phone": "MR.SOHAIL SOOMRO 923009252303",
        "lat": null,
        "lng": null
    },
    {
        "name": "SHAH BHITTAI AUTOS",
        "address": "KHOKAR MUHALLAH",
        "phone": "MR FAQIR MOHAMMED UNNER 923008375850",
        "lat": null,
        "lng": null
    },
    {
        "name": "Noor Electronic",
        "address": "near Milat c n g lehtar road trambri chowl Islamabad",
        "phone": "Mr. Khalid Bashir mughal 923115134356",
        "lat": null,
        "lng": null
    },
    {
        "name": "ehtisham traders",
        "address": "Rifat plaza mango town opp usmaina resturant bara kauh isbd",
        "phone": "Mr. Israr ahmed 923469225322",
        "lat": null,
        "lng": null
    },
    {
        "name": "Saddam Electronic",
        "address": "Razzi plaza new iqbaltown sohan g t road Islamabad",
        "phone": "Mr.Ajmal Khan 923002172816",
        "lat": 33.7330581,
        "lng": 73.0881871
    },
    {
        "name": "Throttle Inspiration",
        "address": "Shpo no 1 Khawaja heights 2 Bharia Phase 7 Rawalpindi",
        "phone": "Mrs.Mehwish Ashraf 923338228038",
        "lat": 33.5915446,
        "lng": 73.053721
    },
    {
        "name": "Rizwan electronic& motor cycle",
        "address": "Pasha market Islama pura Jabbar",
        "phone": "Mr.Muhammad Adeel Zeb 923005070093",
        "lat": null,
        "lng": null
    },
    {
        "name": "MashALLAH Trader",
        "address": "Railway Road, Ghalla Mandi, Jahaniyan",
        "phone": "Mr Rao Shafiq 923008922926",
        "lat": 29.919576,
        "lng": 71.6733707
    },
    {
        "name": "Ghousia Traders",
        "address": "Doumel Chowk, Tanda Road , Jalal Pur Jattan",
        "phone": "Mr. Chaudhary Zulfiqar 923433431666",
        "lat": 32.6005759,
        "lng": 74.213003
    },
    {
        "name": "Rehman Traders",
        "address": "Madina Market Dera Road Jampur",
        "phone": "Mr. Shoukat Ali 923336451957",
        "lat": 30.052972,
        "lng": 70.640073
    },
    {
        "name": "Malik motor",
        "address": "Ghosia chowk Makhand road Jand",
        "phone": "Mr.muhammad Saleem 923125494275",
        "lat": 33.3917124,
        "lng": 71.9557093
    },
    {
        "name": "Rana Traders",
        "address": "Mandra chakwal road Jatli , Mr",
        "phone": "Tahir habib 923015666956",
        "lat": 33.2024448,
        "lng": 73.0980339
    },
    {
        "name": "Pak khari yamaha",
        "address": "Jhelum road mir pur Jatlian",
        "phone": "Mr.Atif Saleem 923488852577",
        "lat": null,
        "lng": null
    },
    {
        "name": "I.B Auto",
        "address": "E-1 raod allama iqbal open university mir pur",
        "phone": "Mr.Zaheer Babar 923065875550",
        "lat": 31.5492159,
        "lng": 73.4982571
    },
    {
        "name": "Mehran motors",
        "address": "Permit Road,Jatoi",
        "phone": "Mr. Mehran 923017879002",
        "lat": 25.3727984,
        "lng": 68.4141369
    },
    {
        "name": "Rana Traders",
        "address": "Natioal Bank Road, Near National Bank, Jauharabad",
        "phone": "Mr. Rana Adnan 923004910500",
        "lat": 24.9159921,
        "lng": 67.0591937
    },
    {
        "name": "Insaf auto",
        "address": "Ittehad Plaza Swabi road dobandi Jehangira , Mr",
        "phone": "Subanullah 923333408858",
        "lat": 18.0842067,
        "lng": -15.9818685
    },
    {
        "name": "Nawab Autos",
        "address": "Shandar Chowk, Jhelum",
        "phone": "Mr. Ijaz Ali 923335823546",
        "lat": 32.9286916,
        "lng": 73.7313182
    },
    {
        "name": "Musa Trader",
        "address": "Sargodha Road , Jhang Sadar",
        "phone": "Mr.Shahzaib Abbas 923217504344",
        "lat": 31.2603506,
        "lng": 72.326433
    },
    {
        "name": "A.M.S Autos",
        "address": "Qureshi Plaza, Railway Road, Jhelum",
        "phone": "Mr. Raja Adeel 923335853478",
        "lat": 32.9247256,
        "lng": 73.719388
    },
    {
        "name": "Madina Autos",
        "address": "DCL Head Office Near 15 Ploice Station Railway Road Jhelum",
        "phone": "Mr. Riaz Dar 923334556430",
        "lat": 32.9375801,
        "lng": 73.7370857
    },
    {
        "name": "Chaudhary Motor",
        "address": "Bahawalpur road khair Pur tamewali",
        "phone": "Mr. Munir 923007850201",
        "lat": null,
        "lng": null
    },
    {
        "name": "Chaudhay Motor",
        "address": "Near bus stand,Kabir wala",
        "phone": "Mr. Abid Rauf 923068651032",
        "lat": null,
        "lng": null
    },
    {
        "name": "Prince Motor",
        "address": "G.T road,Kacha khu",
        "phone": "Mr. Aslam 923067461023",
        "lat": null,
        "lng": null
    },
    {
        "name": "Mukhad Trader",
        "address": "G.T road,Kacha khu",
        "phone": "Amer Abdullah 923006899338",
        "lat": null,
        "lng": null
    },
    {
        "name": "Al-Noor Super Star Centre",
        "address": "Tma Shopping Plaza Opp General Bus Stand Kaloor Kot",
        "phone": "Mr.Naeem Niazi 923007780187",
        "lat": null,
        "lng": null
    },
    {
        "name": "Niaz Super Power Centre",
        "address": "Thana Mor , Kamalia.",
        "phone": "Mr.M.Tahir Niaz 923077556750",
        "lat": 30.7269883,
        "lng": 72.6450218
    },
    {
        "name": "Al-Madina Autos",
        "address": "Main Kashmor Road Kandh Kot",
        "phone": "Sarmad jaghirani 923063398658",
        "lat": null,
        "lng": null
    },
    {
        "name": "3 STAR ELECTRONICS",
        "address": "Baldia Town Main Road Shahjhan Hotel, Sector# 08, Opp:Ayesha Masjid, New Saeedabad, Baldia Town, Karachi.",
        "phone": "ABDUL RAHEEM 923458005585",
        "lat": 24.8546842,
        "lng": 67.0207055
    },
    {
        "name": "A. Majeed Electronics GEO",
        "address": "Shop # G-8,Ghazi Arcade,Kiran Hospital Safoora",
        "phone": "Majeed 923000566981",
        "lat": null,
        "lng": null
    },
    {
        "name": "A.K AUTOS",
        "address": "Shop No:1, Plot No:E-1, Kalandri Chowk, Bilawal Shah Noorani Goth, Sparco Road, Karachi. Mr. Abdul Malik",
        "phone": "923222831730",
        "lat": 32.1985772,
        "lng": 74.5759062
    },
    {
        "name": "A.L.ELECTRONICS",
        "address": "Shop No:121,122-F , Razi Market, Dawood Charongi , Landhi, Karachi Abdul Latif",
        "phone": "MR LATIF 923332383121",
        "lat": 27.9339736,
        "lng": 69.3628954
    },
    {
        "name": "AAA TRADERS",
        "address": "U.P.More, Karachi Shop No:1, N-2, Sector 11-I, North Karachi, U.P.More, Karachi Mohsin",
        "phone": "MOHSIN 923128263170",
        "lat": null,
        "lng": null
    },
    {
        "name": "AAMIR AUTOS",
        "address": "Plot.# Mc-748 Shah Faisal Colony Green Town Near Jamia Masjid Farooqi, Karachi Zeeshan / Hussain",
        "phone": "ZEESHAN 923102929507",
        "lat": 24.8711415,
        "lng": 67.0153961
    },
    {
        "name": "ABDUL BASIT",
        "address": "Ayesha Manzil Shop No:08, Abbas Square, F.B.Area, Block 7, Near Aisha Manzil Karachi.",
        "phone": "ABDUL BASIT 923002858024",
        "lat": 24.9292,
        "lng": 67.0661847
    },
    {
        "name": "ABDUL GHAFFAR AUTOS",
        "address": "Plot No.L-889/890, Sector Ii E, U.P Market - Karachi Shariq",
        "phone": "SHARIQ 923212437061",
        "lat": null,
        "lng": null
    },
    {
        "name": "ABDUL JALIL AUTOS",
        "address": "Shop # 8-9,Baghdadi Shoping Centre Near Masomani Hospital Moosa Lane",
        "phone": "FEROZ 923452186926",
        "lat": 24.857097,
        "lng": 66.9973048
    },
    {
        "name": "ABDUL HAKIM Khan GEO",
        "address": "Shop No. 78, Shumaila Arcade, Near Mosamiat, University Road - Karachi Mr.Abdul Hakeem",
        "phone": "Wadood 923082000081",
        "lat": 25.6321117,
        "lng": 68.5892441
    },
    {
        "name": "AYSHA ELEC.",
        "address": "SHOP NO 5 F.B AREA AISHA MANZIL.",
        "phone": "WASI 923132210400",
        "lat": 24.9277385,
        "lng": 67.0651505
    },
    {
        "name": "AGHA ELEC.",
        "address": "Main Hussaini Chowrangi Sher Pao Calony Masjid E Aqsa Landhi",
        "phone": "IBRAHIM 923101184351",
        "lat": 24.8448834,
        "lng": 67.1966055
    },
    {
        "name": "AGHA TRADER",
        "address": "Agha Traders Main Mosamiyat Chowk",
        "phone": "Hazrat Khan 923002130342",
        "lat": null,
        "lng": null
    },
    {
        "name": "Ahmed Hashmi Autos",
        "address": "Shop # 98-99 Shumail Complex Main Mosamiyat Chowk University Road",
        "phone": "Ahmed Khan 923213899005",
        "lat": 33.7313664,
        "lng": 73.1348128
    },
    {
        "name": "AHMED KHAN AUTOS",
        "address": "Sec 12-D House 330 Near Noor Badshah Sadeebad Baldia Town|",
        "phone": "AHMED KHAN 923002096977",
        "lat": 24.9187786,
        "lng": 66.9613949
    },
    {
        "name": "Ajab Noor electronics",
        "address": "Scout Colony, Abu Al Hassan Isphani Road Shop# 26 , Rabia Heights , Block# 01",
        "phone": "Qutub Khan 923432556820",
        "lat": 24.9310298,
        "lng": 67.0658618
    },
    {
        "name": "AKRAM AUTOS",
        "address": "Mira Naka Road Lucky Star Apartment , Near Water Pump",
        "phone": "FAHIM 923212716002",
        "lat": 24.874899,
        "lng": 67.1673
    },
    {
        "name": "AJMAL & SONS",
        "address": "Showroom No 17 Kmc Market Akber Road",
        "phone": "AJMAL 923002507299",
        "lat": 24.8469423,
        "lng": 66.9820452
    },
    {
        "name": "AL- AZHAN AUTOS",
        "address": "Akhber Road, Karachi 35-Am 18 Akhber Road, Karachi",
        "phone": "UMAIR 923362175902",
        "lat": 24.8546842,
        "lng": 67.0207055
    },
    {
        "name": "AL FALAH AUTO (INYAT AUTOS )",
        "address": "Q-36, Main Road Korangi No.2, Karachi A38/423, Kala Board Near Fatima Eye Hospital, Malir - Karachi Inayat",
        "phone": "INAYAT 923028225451",
        "lat": 24.9230714,
        "lng": 67.066591
    },
    {
        "name": "AL HAJ BARAT KHAN",
        "address": "Main Road Dawood Chali,Opposite Dawood Mills Landhi",
        "phone": "A. JABBAR 923442948455",
        "lat": 24.8416613,
        "lng": 67.2266048
    },
    {
        "name": "Al- Madina MOTOCYCLE",
        "address": "FAQEERA GOTH GULSHA MAYMAR,",
        "phone": "ABDUL JALEEL 923002687390",
        "lat": null,
        "lng": null
    },
    {
        "name": "AL- NOOR ENTERPRISES",
        "address": "Plot# A-1/33 , Main Bazar , Shah Faisal Colony",
        "phone": "NOOR REHMAN 923343899368",
        "lat": 24.8810955,
        "lng": 67.145214
    },
    {
        "name": "AL NOOR TRADERS",
        "address": "Near Bilal Masjid , D.H.A Karachi Shop# 3 Street # 32 12-C, Tauheed Commercial Phase-5",
        "phone": "ABDUL RAHEEM 923332115808",
        "lat": 24.8085077,
        "lng": 67.0376127
    },
    {
        "name": "AL QAYYUM ELECTRONIC",
        "address": "Furniture Market-Shahrah-E-Waqas Saeedabad Plot # 273, 5/J, Near Agha Khan Laboratory",
        "phone": "ALLAH NOOR 923158760060",
        "lat": 31.4885682,
        "lng": 74.3274634
    },
    {
        "name": "AKMAL TRADER",
        "address": "Shop # 67 Sec 9-A New Saeedabad Baldia Town",
        "phone": "DOST MUHAMMAD 923453432899",
        "lat": 24.9187786,
        "lng": 66.9613949
    },
    {
        "name": "AL RAHEEM AUTOS",
        "address": "Surjani Town , Near Salo Garden Sector 5d Sr-04 Shop# 01",
        "phone": "NAVEED 923412540642",
        "lat": null,
        "lng": null
    },
    {
        "name": "AL SHAHID",
        "address": "Naval Colony, Sector No:2, Street No:8, Shop No:2, Haroon, Bahria Naval Colony",
        "phone": "SHAHID KHAN 923232520592",
        "lat": 24.9422353,
        "lng": 66.9350819
    },
    {
        "name": "AL-ASIF ELECTRONICS M/C -",
        "address": "Landhi No 6 Main Bus Stop Landhi Mr. Aamir",
        "phone": "AAMIR 923111036323",
        "lat": 30.4916125,
        "lng": 72.210341
    },
    {
        "name": "AL-EMAN /Warda",
        "address": "Main Bijli Nagar Road, Quid Awaam Colony, Sector 4f, Orangi Town Karachi Muhammad Azeem Khan",
        "phone": "M AZEEM KHAN 923457394717",
        "lat": 24.9451764,
        "lng": 67.0748791
    },
    {
        "name": "AL-SANA ELECTRONIC",
        "address": "Bijli Nagar Opp Gulzar E Masjid Sec 4/F Metroville",
        "phone": "Habib ur Rehman 923003689160",
        "lat": 24.9307539,
        "lng": 66.9979069
    },
    {
        "name": "AL-EMIRATES",
        "address": "Sector A/3,Saeedabad Baldia Plot # 8,9 Shahrah E Waqas Near Robi Mor",
        "phone": "ASLAM KHOSA 923340313529",
        "lat": null,
        "lng": null
    },
    {
        "name": "Ali Auto Point",
        "address": "North Nazimabad Shop No:108, Sd-15, Rahim Plaza, Block A, North Nazimabad, Karachi",
        "phone": "KAMRAN 923343511994",
        "lat": 24.8546842,
        "lng": 67.0207055
    },
    {
        "name": "AL-MEEZAN AUTOS",
        "address": "Shop No.18-C, Opp: Mcb, Akbar Road, Saddar Karachi Jawaid Rasheed Nagori",
        "phone": "SABIR 923002203150",
        "lat": null,
        "lng": null
    },
    {
        "name": "AL-NASIR AUTOS",
        "address": "PLOT/485 SEC/8-B NEAR FAISAL BAKERY NEW SAEEDABAD BALDIA TOWN",
        "phone": "ABDUL NASIR 923351335054",
        "lat": 24.9187786,
        "lng": 66.9613949
    },
    {
        "name": "AMAN ELECTRONIC",
        "address": "Tauheed Commercial Dha Shop # 3 Street 3 34 Building 12-C Tauheed",
        "phone": "DELEEP KUMAR 903332588883",
        "lat": 32.4765606,
        "lng": 74.5022924
    },
    {
        "name": "ANIS ENTERPRISES",
        "address": "5-F, Near Sindhi Hotel, New Karachi - Karachi Nadeem",
        "phone": "NADEEM UR REHMAN 923212540642",
        "lat": null,
        "lng": null
    },
    {
        "name": "ANWAR AUTOS",
        "address": "Main Abul Hassan Isphahani Road Shop# 006a & 006b, Chapal Garden",
        "phone": "Anwar khan 923002205491",
        "lat": 24.9470055,
        "lng": 67.0920191
    },
    {
        "name": "AQEEL AUTOS",
        "address": "In Front Of Masjid-E-Aqsa Shop# 06 , Akbar Road",
        "phone": "AQEEL 923002323407",
        "lat": 24.8790556,
        "lng": 66.9882548
    },
    {
        "name": "ARIF AUTOS",
        "address": "College Road, Turbat Arif Autos College Road, Turbat",
        "phone": "FAHIM 923212716002",
        "lat": 26.0027894,
        "lng": 63.0505609
    },
    {
        "name": "ARYANS ELECTRONICS",
        "address": "Metroville, Karachi Shop No.1, D-13, Block-4, Metrowil Site Karachi Meer",
        "phone": "MEER KHAN 923149236334",
        "lat": null,
        "lng": null
    },
    {
        "name": "ASLAM AUTOS / RAZEE AUTOS",
        "address": "Saddar, K.M.C. Market, Akhbar Road, Saddar",
        "phone": "AAMIR 923212288066",
        "lat": 24.8605712,
        "lng": 67.0317406
    },
    {
        "name": "Ayaz & Ajaz Bike Show room",
        "address": "Gulistan-E-Johar , Block-9 Plot# B-7, Shop# 01 , P.I.A Society",
        "phone": "Mr Ayaz 923343376040",
        "lat": null,
        "lng": null
    },
    {
        "name": "Ayub Khan Electronics",
        "address": "Block-19 Gulshan E Iqbal Main Shanti Nagar Beside Rupali Flats",
        "phone": "Sarwar Khan 923222184045",
        "lat": null,
        "lng": null
    },
    {
        "name": "AYYAZ ENTERPRIES",
        "address": "Mc 604, Asif Road, Green Town, Shah Faisal",
        "phone": "BAKHT KHAN 923009280774",
        "lat": 24.8810984,
        "lng": 67.1595032
    },
    {
        "name": "BABA TRADERS",
        "address": "Plot # 218,Mac-1,Shop 3-4,Main Mehmoodabad No 2 Near Madina Masjid",
        "phone": "ATA MUHAMMAD 923009254240",
        "lat": 34.2124096,
        "lng": 71.5667023
    },
    {
        "name": "BABA FAREED",
        "address": "Shop No.18, K.M.C. Market, Akbar Road, Saddar Karachi Muhammadd Idrees",
        "phone": "IDREES 923318350928",
        "lat": null,
        "lng": null
    },
    {
        "name": "BIKE CITY",
        "address": "B-11, Al-Bhurhan Shoping Circle, Block-E, North Nazimabad Opp: Hydri Market - Karachi Rehman",
        "phone": "REHMAN 923218208090",
        "lat": 24.8712593,
        "lng": 67.0110159
    },
    {
        "name": "BIKE DOT COM",
        "address": "Shop # 2,Sheikh Centre Main Sharah-E-Liaquat Near Regal; Chowk",
        "phone": "SALMAN 923332405177",
        "lat": 31.5615941,
        "lng": 74.3194334
    },
    {
        "name": "BIKE ZONE ORANGI",
        "address": "Sector 11 - 1/2 , Orangi Town Plot# 300/A , Islam Chowk, Near Tayyaba Masjid",
        "phone": "TANVEER 923122427381",
        "lat": 31.613555,
        "lng": 74.2912635
    },
    {
        "name": "BISMILLAH ELECTRONICS",
        "address": "Landhi Sherpao Colony No.2, Landhi, Karachi. Mr. Tahir Zaman",
        "phone": "TAHIR ZAMAN 923008119682",
        "lat": null,
        "lng": null
    },
    {
        "name": "BISMILLAH ENTERPRISES / WAQAS",
        "address": "Shop#3 Plot#29 A.Area, Quaimabad,Karachi",
        "phone": "WAHEED BHAI 923352192881",
        "lat": 24.8546842,
        "lng": 67.0207055
    },
    {
        "name": "CHISHTI AUOTS",
        "address": "Muslim Town, North Karachi Shop#1 , Plot# L-893 Sector 11-E",
        "phone": "GHAFFAR BHAI 923213971355",
        "lat": 24.9684135,
        "lng": 67.0725175
    },
    {
        "name": "CROWN MOTORS",
        "address": "Malir , Karachi Khokarapar No. 1 , Opposite Shell Petrol",
        "phone": "FURQAN 923111699484",
        "lat": 31.4163421,
        "lng": 73.1087804
    },
    {
        "name": "SHAH ENTERPRISES",
        "address": "Plot 535. Sector C Allama Iqbal Road Manzoor Colony Mr. Dad Muhammad",
        "phone": "DAAD MUHAMMAD 923412023101",
        "lat": 34.0049143,
        "lng": 71.559557
    },
    {
        "name": "DANISH ELECTRONCS & AUTO",
        "address": "Shop No:25, Super Jamia Market, Main Road Malir Tanki- Kkarachi Saqib",
        "phone": "DANISH 923453260610",
        "lat": null,
        "lng": null
    },
    {
        "name": "DAWOOD ELECTRONIC",
        "address": "Orangi Town Shop# 06 , Mominabad Main Bazar",
        "phone": "SADDAM KHAN 923121520308",
        "lat": 34.1462225,
        "lng": 73.2115639
    },
    {
        "name": "dIAMOND MOTORS",
        "address": "Shop No:1, Plot No:L-882, Sector, 11-E, M/Cycle Market, U.P.More, North Karachi. North Karachi Ibad Zaheer",
        "phone": "S.M HASNAIN 923008202791",
        "lat": null,
        "lng": null
    },
    {
        "name": "DIAMOND MOTORS",
        "address": "Akhber Road, Shop No:34, K.M.C.Market, Akhber Road, Saddar, Karachi.",
        "phone": "ABDUL SATTAR 923202398281",
        "lat": 24.8546842,
        "lng": 67.0207055
    },
    {
        "name": "DILNAWAZ ELECTRONIC",
        "address": "Pride Garden, Machli Market, Garden East Plot# 441/1 , Block-A , Shop# 6",
        "phone": "ABDULLAH 923212525390",
        "lat": 34.0336686,
        "lng": 72.4822324
    },
    {
        "name": "DILBAR AUTOS",
        "address": "Ittehad Town Plot.# F-533 National Chowk Near Sawat Hotel",
        "phone": "KAMRAN 9232186926",
        "lat": null,
        "lng": null
    },
    {
        "name": "DINAR KHAN ELECTRONICS",
        "address": "Shop No.3, Plot No.93, Near Ameen Mobile Market, Quaidabad, Landhi, Karachi Aamir Khan",
        "phone": "ANWAR KHAN 923333006049",
        "lat": 30.5875993,
        "lng": 70.7277552
    },
    {
        "name": "DOMASTIC APPLIANCIS",
        "address": "Gulistan-E-Johar Shop No:15, Shalimar Shopping Centre, Block-17, Gulistan-E-Johar, Karachi",
        "phone": "MUKHTAR 923009288098",
        "lat": 24.8546842,
        "lng": 67.0207055
    },
    {
        "name": "DREAM HOUSE",
        "address": "Buffer Zone Plot # R-1181,Sector 15-B Buffer Zone Near Two Days Hotal Karachi Faisal Khatri",
        "phone": "HANIF BHAI 923313161327",
        "lat": null,
        "lng": null
    },
    {
        "name": "EAST STAR",
        "address": "Shop No.1, Am-21, Near Mazar, Opp: Masjid Aqsa, Akber Road Karachi Zia Sami",
        "phone": "MUNEEB 923332922732",
        "lat": null,
        "lng": null
    },
    {
        "name": "ERUM AUTOS",
        "address": "Plot No. 16, Sector 15-A, Orangi Town Karachi. M.Salahuddin",
        "phone": "SALUDIN 923360310789",
        "lat": null,
        "lng": null
    },
    {
        "name": "FAHEEM SHAH",
        "address": "Mominabad, Plot No:17, Shop No:1, Sector 4-F, Block-A, Mominabad D1, Orangi Town, Karachi",
        "phone": "DILAWAR KHAN 923323014838",
        "lat": 24.8546842,
        "lng": 67.0207055
    },
    {
        "name": "FAISAL ALLAHWALA AUTOS -",
        "address": "House No.602 Or 356, Block-F, Al-Fatah Colony, Ibrahim Ali Bhai School, Sector No.10, Orangi Town Shoukat Ali",
        "phone": "FAISAL 923003639282",
        "lat": 27.58612,
        "lng": 68.6818304
    },
    {
        "name": "FAISAL ELECTRIC COMPANY -",
        "address": "Deflt Address Faisal",
        "phone": "YOUSUF BHAI 923007045806",
        "lat": null,
        "lng": null
    },
    {
        "name": "FAISAL ENTERPRISE",
        "address": "House # B-38,Street # 30,Khyaban E Mujahid,D.H.A House # B-38,Street # 30 Khayaban E Mujahid D.H.A",
        "phone": "A.GHANI 923337774999",
        "lat": null,
        "lng": null
    },
    {
        "name": "FAIZAN ELECTRONIC",
        "address": "Abdullah Electronics Market, Bilal Masjid Road, Near Metro Cinema, Orangi Town Shaukat",
        "phone": "SHOUKAT 923212929252",
        "lat": 30.7604349,
        "lng": 73.8056996
    },
    {
        "name": "FAZAL HABIB",
        "address": "SHOP NO 1, AYB GOTH KARACHI.",
        "phone": "AMIN 923000092413",
        "lat": 24.94563,
        "lng": 67.0870363
    },
    {
        "name": "FALIK AUTOS",
        "address": "Orangi Town, Karachi Plot No:530, Islam Nagar, Block L, Sec 11, Near Masjid Quba, Orangi",
        "phone": "MUSHTAQ 923122441686",
        "lat": 24.9461056,
        "lng": 67.0128813
    },
    {
        "name": "FIDA & SONS",
        "address": "North Nazimabad, Opp Mehran Welfare Shop# S-11, Farfaro Chambers, Block-A",
        "phone": "LAL KHAN 923453362555",
        "lat": 32.8804649,
        "lng": 73.7798748
    },
    {
        "name": "Fauji Trading Corp",
        "address": "SHELL PUMP BLOCK 1,GULISTAN-E-JAUHAR KARACHI",
        "phone": "RAAZ MUHAMMAD 923008246488",
        "lat": 24.9285936,
        "lng": 67.1140333
    },
    {
        "name": "GHORI KING",
        "address": "Orangi Town , Sec. # 10, Stop 9 3/4 Near Taj Lassi House, Karachi. Arsalan Ahmed Ghori",
        "phone": "ARSALAN 923222686570",
        "lat": null,
        "lng": null
    },
    {
        "name": "GHOUS TRADER",
        "address": "Gulzar-E-Hijri Scheme: 33 Khi Shop # 5 Post Office Society Near Masjid Khatamul Nabian Gulzar-E-Hijri Scheme: 33 Khi",
        "phone": "M. Bakht Khan 923007071463",
        "lat": null,
        "lng": null
    },
    {
        "name": "GHUFRAN ELECTRONIC",
        "address": "Landhi Landhi Bus Stop# 06 , Near Kesc Office",
        "phone": "REHAN 923347105682",
        "lat": null,
        "lng": null
    },
    {
        "name": "GUL & SONS",
        "address": "Baldia Town, Rashidabad House No:252, Rashidabad, Muhajir Camp, Baldia Town, Near Dr.Biquess Wali Hosiptal, Karachi",
        "phone": "ABDUL QAYUM 923012172244",
        "lat": 24.8546842,
        "lng": 67.0207055
    },
    {
        "name": "GUL NOOR KHAN AUTO",
        "address": "Ajmair Nagri, North Karachi - Karachi Gul Noor",
        "phone": "GUL NOOR KHAN 923002131652",
        "lat": 24.883539,
        "lng": 67.1573607
    },
    {
        "name": "H.M.S.B AUTOS",
        "address": "Show Room : Am-301 , C1-G2 , Opp. Naveed Clinic , Frere Road , Saddar, Karachi. Mr. Syed Rehman Ahmed",
        "phone": "ABUL REHMAN 923002167593",
        "lat": 24.8789789,
        "lng": 67.0424871
    },
    {
        "name": "HAFIZ AUTOS",
        "address": "Shop No:A-208, Gulshan-E-Hadeed, Phase 1, Karachi Hafiz M.Javed Abbasi",
        "phone": "HAFIZ JAVED ABBASI 923002705013",
        "lat": null,
        "lng": null
    },
    {
        "name": "HAJI BROTHER",
        "address": "Block# 9 , Gulistan-E-Johar Shop# 12 , Sonheri Appt, Pehalwan Goth",
        "phone": "Rozi Khan 923472825289",
        "lat": 24.8792289,
        "lng": 67.0386817
    },
    {
        "name": "HAJI FEROZ",
        "address": "National Highway , New Lucky Factory Hassan Panhwar Goth",
        "phone": "HAJI FEROZE KHAN 923442629126",
        "lat": 28.0402369,
        "lng": 69.4005328
    },
    {
        "name": "HAJI IBRAHIM AUTOS",
        "address": "Shumaila Arcade, Safura Chowk, Universisty Road - Karachi Mr. Haji Ibraheem",
        "phone": "Rahim Khan 923456009967",
        "lat": null,
        "lng": null
    },
    {
        "name": "Hashmi Arif Arcade/",
        "address": "Shop # 4-5,Arif Arcade,Near Kiran Hospital Safoora",
        "phone": "Alam Khan 923009202528",
        "lat": null,
        "lng": null
    },
    {
        "name": "HASHMI TRADER",
        "address": "Mosmiyat Shop No:9-10, Raza Corner, Near Masjid-E-Raheem, Mosmiyat Chowk, Suparco Road, Karachi",
        "phone": "Shahjahan Khan 923456009991",
        "lat": 24.8546842,
        "lng": 67.0207055
    },
    {
        "name": "HIRA & COMPANY",
        "address": "Korangi No:2 H.No.Q-38, Main Road, Korangi No:2, Karachi",
        "phone": "HABIB SHAIKH 923218965400",
        "lat": 24.8546842,
        "lng": 67.0207055
    },
    {
        "name": "HOME NEED ELECTRONIC -",
        "address": "Gulshan-E-Iqbal, Main Mochi More, Near Continant Baikri - Karachi Mr.Usman",
        "phone": "USMAN BHAI 923009282325",
        "lat": null,
        "lng": null
    },
    {
        "name": "HUZAIFA TRADERS",
        "address": "Saddar Showroom No:43, Block-5, Akhber Road, Saddar, Karachi",
        "phone": "WAQAS 923472468490",
        "lat": 24.8546842,
        "lng": 67.0207055
    },
    {
        "name": "Ibrar Motors / FARAZ AUTOS",
        "address": "Akber Road Saddar Show Room# 10 K.D.C Market",
        "phone": "FAISAL 923002231274",
        "lat": null,
        "lng": null
    },
    {
        "name": "IMRAN AUTOS/ ATIF AUTOS (MC) -",
        "address": "Landhi No 6 Main Bus Stop Landhi Mr. Atif",
        "phone": "ATIF 923219233485",
        "lat": 33.6024114,
        "lng": 73.0162826
    },
    {
        "name": "IBAD AUTO EXCHANGE",
        "address": "MAIN MOTORCYCLE MARKET UP. KARACHI",
        "phone": "ZAHEER 923008202791",
        "lat": 24.8843596,
        "lng": 67.0569033
    },
    {
        "name": "IRFAN AUTOS",
        "address": "Baldia Town 4 1/2 , Karachi 1735/765 , Rabia Mansion, New Anjan Colony",
        "phone": "BAHUL HAQ 923002525358",
        "lat": null,
        "lng": null
    },
    {
        "name": "ISHAQ WALI",
        "address": "Shah Town Gulshan e Hadeed Quaid e Azam Park Main National High Way",
        "phone": "ISHAQ WALI 923069747239",
        "lat": 30.3355044,
        "lng": 72.0212257
    },
    {
        "name": "ISRAR DERVESH",
        "address": "Landhi 89 Shop# 5292 , Muhammad Nagar",
        "phone": "ISRAR 923459999488",
        "lat": 31.3972662,
        "lng": 73.1180329
    },
    {
        "name": "Ismail Electronics",
        "address": "Shop # 2-3,Kamran Chowrangi Near Hascol Petrol Pump Gulistan E Jauhar Block 4",
        "phone": "KARIM KHAN 923009270145",
        "lat": 30.0592642,
        "lng": 70.6360911
    },
    {
        "name": "JAN-E- KHYBER",
        "address": "Shop No.90, Shumail Complex, Sparco Chowk, Main University Road Karachi. Mr. Haider Zaman",
        "phone": "Haider Zaman 923002209879",
        "lat": null,
        "lng": null
    },
    {
        "name": "JAPAN AUTOS",
        "address": "Show Room, Opp. Naveed Clinic Sharah-E-Liaquat, Off Akbar Road, Saddar , Karachi. Mr. Naseer Ahmed",
        "phone": "TARIQ 923002208774",
        "lat": 31.5064399,
        "lng": 74.3150274
    },
    {
        "name": "JOHAR SHAH ELECTRONICS",
        "address": "Shop # 244-45 Razi Market Landhi Near Dawood Chowrangi Pull",
        "phone": "ABDUL JABBAR 923332323681",
        "lat": null,
        "lng": null
    },
    {
        "name": "JUNAID AUTOS",
        "address": "Saddar , Karachi Shop# 09 , Akbar Road, Near Aqsa Masjid",
        "phone": "JUNAID 923123605348",
        "lat": 33.996229,
        "lng": 71.5414568
    },
    {
        "name": "KABIR ELECTRONICS",
        "address": "Martson Road , Saddar Shop# C-102 , National Auto Plaza",
        "phone": "ANEES 923404883423",
        "lat": 24.8648255,
        "lng": 67.021412
    },
    {
        "name": "KARACHI AUTOS",
        "address": "Plot No.25, Sector 8/A, Data Nagar, Orangi Town - Karachi Habib",
        "phone": "FARHAN 923212120362",
        "lat": 24.8949843,
        "lng": 67.0784284
    },
    {
        "name": "KARACHI TRADER",
        "address": "Gulistan-E-Johar, Karachi Plot No:C-254, Shop No:1-2-3, Street No:19, Gulistan-E- Johar, Block-9, Hussaini Mohala, Bhatiabad",
        "phone": "Hazrat Khan 923442035621",
        "lat": null,
        "lng": null
    },
    {
        "name": "KAREEM AUTOS",
        "address": "Shop No. 8-9-10, Asif Market Baqai University Opposite Tol Plaza Super High Way Gadap Jaam Tamachi",
        "phone": "IMRAN 923052400623",
        "lat": null,
        "lng": null
    },
    {
        "name": "KASHAN/ RAHMET TRADERS",
        "address": "Martson Road , Saddar Shop# C-102 , National Auto Plaza",
        "phone": "KASHAN GAZDAR 923234210319",
        "lat": 24.8648255,
        "lng": 67.021412
    },
    {
        "name": "KHALID AUTOS/ UNIVESAL",
        "address": "Up More Shop No:2 & 3 Decent Home, Phase - Ii, Sb-43, Sector 11-H Up More",
        "phone": "KHALID 923353887752",
        "lat": null,
        "lng": null
    },
    {
        "name": "KHAN ENTERPRISES / KHAN BIKE",
        "address": "Block.J, Sector11-12, Pakistan Bazar, Siddiq Akber Masjid Orangi Haji Aslam Khan",
        "phone": "ASLAM 923332351952",
        "lat": 33.7330581,
        "lng": 73.0881871
    },
    {
        "name": "KHALIL & BROTHERS",
        "address": "Shop # L-71 Sec 20 B Main Zakria Chowk Shah Latif Town",
        "phone": "KALIL 923152950900",
        "lat": 24.8513287,
        "lng": 67.0017386
    },
    {
        "name": "KHAN ZADA ELECTRONIC",
        "address": "Liyari Sector 35-A, Shop # 103, Near Hawker Market , Liyari Express",
        "phone": "EID MUHAMMAD 923441157355",
        "lat": null,
        "lng": null
    },
    {
        "name": "KULANCH MOTORCYCLE SHWOROM",
        "address": "Airport Road, Gawadar Airport Road, Gawadar",
        "phone": "MURAD BUX 923023932446",
        "lat": 25.2098166,
        "lng": 62.0982309
    },
    {
        "name": "LATIF TRADER",
        "address": "Head Office: Nabi View Main University Road, Karachi. Mr. Hussain",
        "phone": "Mr. Faisal 923002233776",
        "lat": 26.2542234,
        "lng": 68.1913438
    },
    {
        "name": "M.BABR & CO",
        "address": "Karachi Show Room # 1 Younus Manzil Am-19, Akber Road,",
        "phone": "SABIR 923332104417",
        "lat": 24.8469423,
        "lng": 66.9820452
    },
    {
        "name": "M.Rasheed Electronics",
        "address": "Shop # 2,Billy Garden Paradise Stop Abu Isphani Road Gulshan E Iqbal",
        "phone": "Mr Danish 923332217604",
        "lat": 24.8985639,
        "lng": 67.0838289
    },
    {
        "name": "MADINA TV CENTER",
        "address": "A-35 Kalaboard Stop Malir Kalaboard Stop Malir",
        "phone": "DR SAJID 923458270808",
        "lat": 24.9033587,
        "lng": 67.1819318
    },
    {
        "name": "MADNI TRADERS / MEHRAJ TRADERS",
        "address": "Shop No.1, Sector 11-L, Bus Stop North Karachi - Karachi Iqbal",
        "phone": "IQBAL SB 923222685838",
        "lat": 24.8703601,
        "lng": 67.0958906
    },
    {
        "name": "MAQSOOD AUTOS",
        "address": "Baldia Shop No 2 Kmc Office Muhajir Camp",
        "phone": "MAQSOOD 923133956721",
        "lat": 24.9075095,
        "lng": 66.9638897
    },
    {
        "name": "MASTER ELCTRONICS",
        "address": "North Karachi R-437, 11-C-1, Shop# 4 , Adam Town,",
        "phone": "WAHID SB 923313918462",
        "lat": 33.6850114,
        "lng": 71.5166239
    },
    {
        "name": "MIRZA AND SONS",
        "address": "Korangi No. 2 1/2 Plot# P/19, Korangi No 2 . Mr Wajid",
        "phone": "WAJID MIRZA 923218226446",
        "lat": 33.6422199,
        "lng": 73.092554
    },
    {
        "name": "MIR ABDULLAH",
        "address": "Main National Highway S.M.H.S Near Sattar Petrol Pump Jogi Moor",
        "phone": "IMAM 923218991959",
        "lat": null,
        "lng": null
    },
    {
        "name": "MIR KALAM",
        "address": "A-53, Opp: Pso Petrolpump Mpr Colony, Main Mangopir Road, Karachi Abdul Rahman",
        "phone": "ABDUL REHMAN 923002778592",
        "lat": 35.9131347,
        "lng": 74.3926478
    },
    {
        "name": "MODREN T.V. CENTER",
        "address": "36f/32 Bus Stop # 5 Landhi Dr.Sajid",
        "phone": "ALTAF 923008070802",
        "lat": null,
        "lng": null
    },
    {
        "name": "MUHAMMAD FAIZ",
        "address": "Shop # 16/17 Madina Centre Hussain Baksh Road Kimari",
        "phone": "WAHEED 923132002383",
        "lat": 24.8002273,
        "lng": 66.9717135
    },
    {
        "name": "M.A AUTOS",
        "address": "Street 16 Plot # 5 Shop 6 Street 16 Khyber Gate Metrovile S.I.T.E",
        "phone": "SADIQ KHAN 923022188996",
        "lat": null,
        "lng": null
    },
    {
        "name": "MUJAHID ELECTRONICS",
        "address": "Plot No.33, Road No.3, Near Khan Hotel, Bhans Colony - Karachi Wali Khan",
        "phone": "WALI KHAN 923132509000",
        "lat": 31.5858602,
        "lng": 74.3086759
    },
    {
        "name": "N.M TRADER",
        "address": "Abdullan Isphani Road, Shop No: 03, Margalla Heights, Abdullah Isphani Road, Near Mubina Town Police Station, Karachi",
        "phone": "Azam Khan 923002682136",
        "lat": 24.8546842,
        "lng": 67.0207055
    },
    {
        "name": "N.T AUTOS",
        "address": "Shop # 11, Akber Road, Saddar, Karachi. Rana Tariq",
        "phone": "RANA TARIQ 923452805313",
        "lat": 32.0250692,
        "lng": 72.6108122
    },
    {
        "name": "NABI KHAN",
        "address": "Bhains Colony Main Stop , Machine Tool Factory Road",
        "phone": "SADIQ KHAN 923002654278",
        "lat": 31.6053176,
        "lng": 74.4122102
    },
    {
        "name": "NADIR BIKE ZONE",
        "address": "Shop # H-228, Near Bilal Masjid Double Road Kashmir Colony",
        "phone": "NADIR 923092250770",
        "lat": 32.2419568,
        "lng": 74.1472491
    },
    {
        "name": "NAIMATULLAH ELECTRONICS",
        "address": "Plot No.C-8, Al-Wajid Town Fronter More Metrowil Abdul Rehman",
        "phone": "ABDUL REHMAN 923002171833",
        "lat": 26.9321187,
        "lng": 67.7174083
    },
    {
        "name": "NASAR & SONS / Jamil Autos",
        "address": "Plot # 51-52, Pakistan Bazar, Sector 11 1/2, Orangi Town, Karachi. Jamil",
        "phone": "JAMIL 923332252432",
        "lat": null,
        "lng": null
    },
    {
        "name": "NASEER KHAN",
        "address": "Shop # 3 Plot # 29 Street # 24,Sec A Main Bazar Qayumabad",
        "phone": "MUHAMMAD KHAN 923029486011",
        "lat": null,
        "lng": null
    },
    {
        "name": "NASEEM AUTOS",
        "address": "Shop No 29-A Kmc Market A.M 19 Akber Road",
        "phone": "WASEEM 923213873372",
        "lat": 24.8469423,
        "lng": 66.9820452
    },
    {
        "name": "NASIR BIKE ZONE BALDIA",
        "address": "Plot 67 Sec 9b Near Laghari Market Saeedabad Baldia Town",
        "phone": "NAIMAT KHAN 923324492232",
        "lat": 24.9187786,
        "lng": 66.9613949
    },
    {
        "name": "NAVEED BROTHERS",
        "address": "Sector 4-E, Orangi Town House No 280 , Near Muhammadi Masjid",
        "phone": "NAVEED SIDDIQUE 923009280970",
        "lat": 31.4941834,
        "lng": 74.3960412
    },
    {
        "name": "NAVIL AUTOS",
        "address": "Street # 6, Hub River Road, Plot#2 Sector#2, Naval Colony, Haroon Behria Housing Society",
        "phone": "ASLAM KHAN 923003562209",
        "lat": 31.5754448,
        "lng": 74.4850002
    },
    {
        "name": "NAZAKAT MOTORS",
        "address": "H # 1 , Street # 15, Area 36/D, Landhi # 6, Karachi. Mr. Nazakat",
        "phone": "NAZAKAT 923121281216",
        "lat": null,
        "lng": null
    },
    {
        "name": "NB TRADERS",
        "address": "Shop # 3 Muhib Ullah Market,Gulshan E Maymar Yousuf Sahab Khan Goth,Near Ajmair Ower",
        "phone": "BAHUDDIN 923009234393",
        "lat": null,
        "lng": null
    },
    {
        "name": "NEW ARSALAN TRADERS",
        "address": "SHOP NO. 1-2, FAREEQA GOTH HIGHWAY.",
        "phone": "ARSALAN 923007068891",
        "lat": 24.8776783,
        "lng": 67.1925024
    },
    {
        "name": "NEW BILAL",
        "address": "Shadman Town Plot.# R-659,Sector 14-A,Shadman Town Near Qalandria Chowk,North Karachi",
        "phone": "MR ATTA 923002692064",
        "lat": 24.9439091,
        "lng": 67.0846314
    },
    {
        "name": "NEW FAKAR MOTOR",
        "address": "Gulistan-E-Jauhar Chishti Nagar, Near Kamran Chowrangi",
        "phone": "Mr. Fakhar 923052468414",
        "lat": 24.9237215,
        "lng": 67.137763
    },
    {
        "name": "NEW HAMDRED AUTOS",
        "address": "339 - 340 Am Shop No.2, Akber Road , Karachi. Mr. Muhammad Aamir",
        "phone": "AAMIR 923052699808",
        "lat": null,
        "lng": null
    },
    {
        "name": "NEW KHYBER AUTOS",
        "address": "A-287,Mohalla Shahiabad Colony Sec 3 Site Town Metro",
        "phone": "AZIZ KHAN 923162027876",
        "lat": null,
        "lng": null
    },
    {
        "name": "NEW MEMON / A.H AUTOS",
        "address": "Akbar Road , Saddar Shop# 05 , Masjid-E-Aqsa",
        "phone": "KASHAN 923212436554",
        "lat": 33.6708706,
        "lng": 73.0665069
    },
    {
        "name": "NEW PRINCE",
        "address": "Plot # S-10,Shop # 2 & 4,Cantt Bazar Malir Cantt",
        "phone": "JAWAID 923002875705",
        "lat": 24.9263658,
        "lng": 67.2036763
    },
    {
        "name": "NEW NAWAB /Kaleem Autos",
        "address": "Shop No.18, Rizvi Chamber, Akbar Road, Saddar Karachi Sh.Kaleem / Sh.Saleem",
        "phone": "KALEEM 923002218059",
        "lat": 32.5120953,
        "lng": 74.4849353
    },
    {
        "name": "NEW RASHEED AND SONS",
        "address": "SHOP NO 1, NAZIMABAD NO 1. KAREACHI",
        "phone": "RASHID 923002520432",
        "lat": null,
        "lng": null
    },
    {
        "name": "NEW PAK ELECTRONIC",
        "address": "Baldia Town 37 Sector 4/E Baldia Town Nai Abadi",
        "phone": "ALAM KHAN 923453219128",
        "lat": 24.9170133,
        "lng": 66.9626852
    },
    {
        "name": "NIAZ AND CO.",
        "address": "PLOT NO 244, GABOL, SUPER HIGHWAY.",
        "phone": "NIAZ 923008236120",
        "lat": 24.9848011,
        "lng": 67.237952
    },
    {
        "name": "New Raza Electronics",
        "address": "Shop # 19,Farhan Paradise Block-19,Near Johar Mor",
        "phone": "Mr. Rao Ramzan 923369289281",
        "lat": 24.9047289,
        "lng": 67.1136709
    },
    {
        "name": "New Tawakal Motors",
        "address": "Near Kamran Chowrangi,Gulistan E Jauhar",
        "phone": "M Yaseen 923003348050",
        "lat": 24.9240162,
        "lng": 67.1382134
    },
    {
        "name": "New Wakeel Autos",
        "address": "Suparco Road Shop# E-62, Bilawal Goth, Block-E More Chowk Suparco Road, Karachi",
        "phone": "Wakeel Khan 923456050096",
        "lat": 24.8546842,
        "lng": 67.0207055
    },
    {
        "name": "NEW WALI AUTOS",
        "address": "House No:L-311, Sector 17-A, Opp:Aman Masjid, Shah Latif Town, Karachi Esmail Wali",
        "phone": "ISMAIL WALI 923062337967",
        "lat": null,
        "lng": null
    },
    {
        "name": "NEW YAADGAR ELECTRONICS",
        "address": "Main Cattle Colony Road,Sec 17-A Aman Masjid Shah Latif Town",
        "phone": "ASAD 923453101303",
        "lat": 24.8513287,
        "lng": 67.0017386
    },
    {
        "name": "NEW ZAM ZAMA ELECTRONIC",
        "address": "Plot.C-179,Raja Minssion,Near Al-Naz Pakwan Center,Mehmoodabad",
        "phone": "TARIQ 923009213618",
        "lat": 32.6243315,
        "lng": 74.2387987
    },
    {
        "name": "NIAZ AND SHAH",
        "address": "Main Bazar Memon Goth Near Sher Muhammad Jokhio Motor Show Room At Front Katohar Stop",
        "phone": "ISHAQ WALI 923002687431",
        "lat": null,
        "lng": null
    },
    {
        "name": "NEW S.M ANWAR AUTOS",
        "address": "TAISER TOWN, KARACHI",
        "phone": "LIAQAT 923162666334",
        "lat": 25.042754,
        "lng": 67.1027401
    },
    {
        "name": "New Zeeshan Electronics",
        "address": "Shop # E-379/3 Street # 4 Baloch Chowk Bhatiabad Gulistan E Jauhar",
        "phone": "Schehzad Awan 923132778142",
        "lat": 24.9240162,
        "lng": 67.1382134
    },
    {
        "name": "NOMAN ELECTRONIC",
        "address": "Shop No.A-22, Rabia City Block-18, Gulistan-E- Johar Karachi. Mr. Nawaz",
        "phone": "M. Nawaz 923219228503",
        "lat": 30.1520504,
        "lng": 71.5463374
    },
    {
        "name": "NOOR TRADERS",
        "address": "Baldia Town, Saeedabad, Karachi Plot No:22, Sector 9-D, Saeedabad, Baldia Town 9 No.Opp: Laghari Market, Beside Bismillah Biryani,",
        "phone": "NOOR MUHAMMAD 923422398202",
        "lat": 24.9346112,
        "lng": 67.1049513
    },
    {
        "name": "OK AUTOS",
        "address": "Saddar, Karachi Shop No:28, Kmc Market, Akhbar Road,",
        "phone": "UZAIR 923463218560",
        "lat": 30.7016355,
        "lng": 73.0716657
    },
    {
        "name": "OWAIS SHAHID",
        "address": "Gulshan E Sikandarabad Keemari Block # 1,Saif Rehman Road,Gulshan E Sikandarabd Keemari",
        "phone": "OWAIS 923462498996",
        "lat": null,
        "lng": null
    },
    {
        "name": "PP CORNER",
        "address": "Shop No. 7, Kmc Market, Opp: Zinda Shah Mazar, Akber Road - Karachi Kauser",
        "phone": "KOSAR 922132733809",
        "lat": null,
        "lng": null
    },
    {
        "name": "QABEER ELECTRONICS",
        "address": "Tauheed Commercial , Dha Shop# 03 , Plot# 9/C , 37th Commercial Street",
        "phone": "ANIS 923404883423",
        "lat": 31.5674162,
        "lng": 74.3107665
    },
    {
        "name": "QABAIL ELECTRONICS",
        "address": "Plot # G-56,Sector # 3,Metroville S.I.T.E",
        "phone": "GHAIRAT SHAH 923332300548",
        "lat": null,
        "lng": null
    },
    {
        "name": "QADRI AUTOS",
        "address": "Akbar Road, Saddar Mcb Rizvi Branch",
        "phone": "IRFAN 923333002235",
        "lat": null,
        "lng": null
    },
    {
        "name": "QAISER BABA BIKE AUTOS",
        "address": "Sector 4-F, Kashimir Town, Noori Chowk, Orangi Town Karachi Meer Jaan",
        "phone": "MEER JAN 923082965021",
        "lat": null,
        "lng": null
    },
    {
        "name": "QASIM KHAN AUTOS",
        "address": "Abu il Isphani Road, Main Quad-E-Azam Colony - Karachi Mr.Abdul Hakeem",
        "phone": "Abdul Hakim Khan 923452234050",
        "lat": 25.6321117,
        "lng": 68.5892441
    },
    {
        "name": "QASMAT /New Umer",
        "address": "Qayyumabad , Korangi Road Shop#01 , Street# 26 , C Area",
        "phone": "HAJI ABDUL MALIK 923002417250",
        "lat": 28.1506082,
        "lng": 68.0559099
    },
    {
        "name": "RAAZ AUTOS",
        "address": "Shop # 6,Masha Allah Market,Suparco Road Johar",
        "phone": "923402664093",
        "lat": 24.9607872,
        "lng": 67.1137398
    },
    {
        "name": "R.H TRADERS",
        "address": "Shop # C8/A,Al Azam Plaza Near Malik Agha Hotel Sohrab Goth",
        "phone": "RAHEEM 923007085145",
        "lat": 24.9505443,
        "lng": 67.0897399
    },
    {
        "name": "R.T. & CO.",
        "address": "Surjani Town Plot No:L-61, St-18, Sec-4-D, Surjani Town, Muraqba Hall Road, Karachi",
        "phone": "NAVEED 923003711428",
        "lat": 24.8546842,
        "lng": 67.0207055
    },
    {
        "name": "RAFI & SONS",
        "address": "Regal Chowk,Saddar Regal Chowk,Saddar",
        "phone": "HAJI RAFI 923162171212",
        "lat": 24.8605712,
        "lng": 67.0317406
    },
    {
        "name": "Rais & Sons",
        "address": "Gulshan-E-Iqbal Plot.# R-286,Railway Project,Opp Savana City,Block 13-D,Gulshan-E-Iqbal Karachi",
        "phone": "ADIL ALAM 923453045616",
        "lat": 24.8703601,
        "lng": 67.0958906
    },
    {
        "name": "RANA KHAN SUPER",
        "address": "Karachi Bijli Nagar, Metrowil Shop No.138, Site - Karachi Rana Bhai",
        "phone": "RANA KHAN 923482186383",
        "lat": 31.2210742,
        "lng": 73.9419869
    },
    {
        "name": "RIAZ AUTOS",
        "address": "Shop # 6, Akber Road Adjacent Masjid-E-Aqsa, Saddar, Karachi . Mr. Yaushe Murad",
        "phone": "RIAZ 923009271407",
        "lat": null,
        "lng": null
    },
    {
        "name": "ROHANI BABA",
        "address": "Malik Chowk, Sector 4-F, Orangi Town Shop# 03, Plot# 374, Mominabad",
        "phone": "NAIMAT KHAN 923462992763",
        "lat": 24.9304645,
        "lng": 66.9917469
    },
    {
        "name": "ROSE TRADERS",
        "address": "Show Room, Opp. Naveed Clinic Sharah-E-Liaquat, Off Akbar Road, Saddar , Karachi. Mr. Naseer Ahmed",
        "phone": "SHIRAZ 923002275337",
        "lat": 31.5064399,
        "lng": 74.3150274
    },
    {
        "name": "ROSE TRADERS",
        "address": "Show Room, Opp. Naveed Clinic Sharah-E-Liaquat, Off Akbar Road, Saddar , Karachi. Mr. Naseer Ahmed",
        "phone": "SHIRAZ 923002275337",
        "lat": 31.5064399,
        "lng": 74.3150274
    },
    {
        "name": "S.M.AUTOS",
        "address": "Shop No.1&2, Near Al-Habib Bank, Murad Memon Goth - Karachi Mozammil",
        "phone": "IFTIKHAR AHMED 923142294593",
        "lat": null,
        "lng": null
    },
    {
        "name": "S.S. ELECTRONIC",
        "address": "Plot # F/656,Near Taleemi Garden Rasheedabad",
        "phone": "ISMAIL KHAN 923102317136",
        "lat": 34.0210892,
        "lng": 71.5650004
    },
    {
        "name": "SABIR MADINA ELECTRONICS",
        "address": "Houce # C-480 Punjabi Saudagiran Society Azeem Pura Millat Town",
        "phone": "SABIR 923133844622",
        "lat": 24.87216,
        "lng": 67.1705412
    },
    {
        "name": "SADIQ ELECTORNICS",
        "address": "Plot # 176 Orangi Town Near Mujahid Footbal Ground Mominabad",
        "phone": "NOOR KHAN 923461900046",
        "lat": 24.932366,
        "lng": 67.000135
    },
    {
        "name": "SAFARI CENTER",
        "address": "Saddar Shop# 14, Akber Road, Near Aqsa Masjid",
        "phone": "ABDULLAH 923312443894",
        "lat": 33.996229,
        "lng": 71.5414568
    },
    {
        "name": "SAHIBZADA TRADERS",
        "address": "Street 5 Block B Super Highway Shop # 1,2 Main Bazar Yousuf Sahib Khan Faqira Goth Super Highway",
        "phone": "MUDASIR AFRIDI 923313652523",
        "lat": 24.9848011,
        "lng": 67.237952
    },
    {
        "name": "SAIF ULLAH ELECTRONIC",
        "address": "Baldia Town, Saeedabad Shop# 24-25 Sector 8-C,",
        "phone": "MIAN WAND KHAN 923122371522",
        "lat": 25.0719513,
        "lng": 67.1687713
    },
    {
        "name": "SALMAN ELECTRONICS",
        "address": "Sector # 10. Orangi Town, Karachi Sector # 10. Orangi Town, Karachi",
        "phone": "SAJID 923228989889",
        "lat": 25.0278738,
        "lng": 67.0621799
    },
    {
        "name": "Sardar Khalid Khan Electronics",
        "address": "Shop # B1-13,Abdullah Shah Ghazi Goth Sch 33 Near Al Azhar Garden",
        "phone": "Wali Khan 923401804966",
        "lat": 24.9566758,
        "lng": 67.1496169
    },
    {
        "name": "SARWAR KHAN ELECTRONICS",
        "address": "Shop # 6,Jamali Goth Block D/2 Gulshan E Iqbal No 41",
        "phone": "SARWAR KHAN 923002037809",
        "lat": 30.504039,
        "lng": 72.7117542
    },
    {
        "name": "SEYD NOMAN",
        "address": "Shop # 7,Hill View Apartment Block D Opp.Shipowner College North Nazimabad",
        "phone": "NOMAN 923448958798",
        "lat": 24.9424616,
        "lng": 67.0477185
    },
    {
        "name": "SHAH & SONS",
        "address": "Shop No:2, Khyber Market, Near Samama Shopping Centre, University Road, Gulshan-E-Iqbal Karachi (Mr. Ali Gul)",
        "phone": "Wali Shah 923062105297",
        "lat": 24.8699662,
        "lng": 67.200199
    },
    {
        "name": "Shah Nawaz Electronics",
        "address": "Abul Hassan Ispihani Road , Metroville Usman Terrace , Shop# 14-15 , Block-1 , Scout Colony",
        "phone": "Ahmed Khan 923012513405",
        "lat": 24.9428021,
        "lng": 67.0988568
    },
    {
        "name": "SHAHEEN /DAAD/SHARJA",
        "address": "Plot 2209 Street 8 Al Ghaffar Palce Shop No 1 11.C Bus Stop Azam Town Mr. Tufail",
        "phone": "TUFAIL KAHN 923408326591",
        "lat": 31.5260618,
        "lng": 74.3791883
    },
    {
        "name": "SHAIK AUTOS",
        "address": "Street # 9 Naval Colony Sec 4 Haroon Bahria Housing Society House # 39",
        "phone": "",
        "lat": 5.3031216,
        "lng": -3.9735225
    },
    {
        "name": "SHAHEEN AUTOS",
        "address": "Shop # 8 Near Data Autos Memon Appartment Akber Road",
        "phone": "USMAN 923339222079",
        "lat": 24.8469423,
        "lng": 66.9820452
    },
    {
        "name": "Shahi Electronic",
        "address": "Safoora, Karachi Shop No 1 & 2 , Rufi Duplex, Near Kirani Hospital Road",
        "phone": "M. Yaar Khan 923022020066",
        "lat": 31.572144,
        "lng": 74.3170203
    },
    {
        "name": "SHAHJAHAN AUTO CORPORATION -",
        "address": "Qayumabad, Karachi Shope # 5-6 St# 29 Sector C Qayyumabad Mr. Abdullah",
        "phone": "ABDULLAH 923218260990",
        "lat": 31.4234631,
        "lng": 73.1073148
    },
    {
        "name": "SAMIULLAH AUTOS",
        "address": "QAZAFI TOWN FAQEERA GOTH,",
        "phone": "SHAH MUHAMMAD 923028200233",
        "lat": null,
        "lng": null
    },
    {
        "name": "SHARI AUTO CENTER",
        "address": "Al Karam Building, Akber Road, Saddar Plot# 07 , Secretariate View, Am-20",
        "phone": "ABDULLAH 923219253100",
        "lat": 34.0336686,
        "lng": 72.4822324
    },
    {
        "name": "SHARJAH TRADER",
        "address": "Shah Faisal Colony Plot # 4/H4 Shah Faisal Colony Main Bazar , Bank Al-Habib",
        "phone": "ALI KAHN 923002912230",
        "lat": 31.4732061,
        "lng": 74.4426828
    },
    {
        "name": "SHAZAIN ZIKRYA",
        "address": "Shireen Jinnah Colony , Clifton Shop# 02 , Near Masjid Hamza,",
        "phone": "MURRAD 923149772002",
        "lat": 33.9729313,
        "lng": 71.4789043
    },
    {
        "name": "SHERO ELECTRONIC",
        "address": "NEW ABADI QABAIL MASJID ROAD SEC4-D ALI CHOWK BALDIA TOWN",
        "phone": "sher baaz khan 923102864142",
        "lat": 24.9187786,
        "lng": 66.9613949
    },
    {
        "name": "SIDDIQUE SONS TRADERS",
        "address": "A-1425, Al-Bakhtawar Road, Phase-I, Gulshan-E-Hadeed, Karachi Raheem Shah",
        "phone": "RAHIM SHAH 923312245500",
        "lat": 24.9298887,
        "lng": 66.9817033
    },
    {
        "name": "Sindh Autos Sun City",
        "address": "Shop # 6 Bilawal Society Ramzan Centre Shop # 6,Near Chappal Sun City",
        "phone": "Sami Jatoi 923337126339",
        "lat": 24.9930798,
        "lng": 67.3244931
    },
    {
        "name": "Sindh Traders",
        "address": "Plot # A 2/12 Shop # 2 Near Makhdoom Bilawal Goth Noman Appartment,Block G Ghazi Goth Plot # A 2/12 Shop # 2 Near Makhdoom",
        "phone": "Fazal Khan 923082644113",
        "lat": null,
        "lng": null
    },
    {
        "name": "SONAHRI ELECTRONIC",
        "address": "Shop No.15/16, Soneri Apartment, Pehlwan Goth - Karachi Mr. Haji Muhammad",
        "phone": "M. Haji 923002204360",
        "lat": 25.1251844,
        "lng": 69.5280283
    },
    {
        "name": "Star Electronics",
        "address": "Plot # C-02 Shop # 1 Near Chappal Sun City Scheme 33",
        "phone": "ATIQ ULLAH 923062315700",
        "lat": 24.9728826,
        "lng": 67.1275094
    },
    {
        "name": "SULAMAN KHEL",
        "address": "Main Road, Near Bolan Hotel, North Nazimabad Plot# 344 Nusrat Bhutto Colony,",
        "phone": "SULTAN 923213480882",
        "lat": 31.6737261,
        "lng": 73.0049966
    },
    {
        "name": "SULTAN ROSHAN",
        "address": "SHOP NO 2 MEHRAN VIEW, NAZIMABAD NO 4, KARACHI",
        "phone": "SULTAN 923002687645",
        "lat": 24.8546842,
        "lng": 67.0207055
    },
    {
        "name": "SUPER TRADERS",
        "address": "Plot No.1030, Street No.6, Block-C, Paracha Chowk, Shershah, Karachi Ismail",
        "phone": "ISMAIL KHAN 923002217492",
        "lat": 24.9248681,
        "lng": 67.0475108
    },
    {
        "name": "Surmawala / A.T Auots",
        "address": "Saddar Bike House Saddar",
        "phone": "KASHIP 923218259002",
        "lat": 24.8486325,
        "lng": 67.0199038
    },
    {
        "name": "SYED BROTHER",
        "address": "F.B AREA , KARACHI",
        "phone": "IMRAN 923122000699",
        "lat": 24.937149,
        "lng": 67.0876128
    },
    {
        "name": "Syed Electronics",
        "address": "Shumail Complex, Shop No:81, 82 & 83 Opp:Musimiat Chowk, University Road, Karachimosimiyat",
        "phone": "Baz Khan 923002112734",
        "lat": null,
        "lng": null
    },
    {
        "name": "JUNAID TARIQ AUTOS",
        "address": "Hawks Bay Road Gate 3 Gali No 4 Borger Market Near Truck Addah",
        "phone": "TARIQ 923102929666",
        "lat": null,
        "lng": null
    },
    {
        "name": "TAYYAB AUTOS",
        "address": "SHOP NO 321 MAIN BANARAS. ORANGI TOWN.",
        "phone": "ASLAM KHAN 923132224245",
        "lat": 24.9461056,
        "lng": 67.0128813
    },
    {
        "name": "TAJ ELECTRONICS / HAMMAD",
        "address": "Landhi No 6 Main Bus Stop Landhi Mr. Ibrar",
        "phone": "ABRAR 923113252031",
        "lat": null,
        "lng": null
    },
    {
        "name": "UMER ELECTRONICS",
        "address": "Shop#01 & 02 House#890 Mashllah Bldg Near Eid Gah Blk 22 F.B.Area Karachi",
        "phone": "UMAR 923002317481",
        "lat": 24.8980434,
        "lng": 67.1172903
    },
    {
        "name": "UNITED POWER AUTOS",
        "address": "Tanga Stand Road Urdu Bazar Shershah",
        "phone": "FEROZ KHAN 923452727401",
        "lat": 24.8830591,
        "lng": 66.9965339
    },
    {
        "name": "UNIQUE HOUSE",
        "address": "Showroom # 4,Raja Ghulam Nabi Trust Building Frare Road Saddar",
        "phone": "ASIF 923334224409",
        "lat": 33.5967603,
        "lng": 73.0503451
    },
    {
        "name": "USAMA AUTOS",
        "address": "Near Imran Electronics, Malir Tanki Shop# 17 , 18 Jama Rashidia Market",
        "phone": "UMIAR 923310210114",
        "lat": null,
        "lng": null
    },
    {
        "name": "USMAN TRADERS M/Cycle",
        "address": "Plot # R-390,Sector 11-L Bus Stop # 3 New Karachi Plot # R-390,Sector 11-L Bus Stop # 3 New Karachi",
        "phone": "IRSHAD BHAI 923152449112",
        "lat": 24.9725357,
        "lng": 67.0669523
    },
    {
        "name": "W.R ELECTRONICS/ABDUL QADEER",
        "address": "Sr-32 Shop # 3,4 Sec 4-B Surjani Town",
        "phone": "RIZWAN 923052771165",
        "lat": 25.0770299,
        "lng": 67.073576
    },
    {
        "name": "WALI JAN AUTOS",
        "address": "Shop # 26-27, Shumail Complex, Mosmiat Chowk, Mian University Road, Karachi. Mr. Wali Jan",
        "phone": "Wali Jan Khan 923002594388",
        "lat": 30.429045,
        "lng": 73.8201079
    },
    {
        "name": "WANIA TRADERS",
        "address": "Fb Area, Ayesha Manzil Shop# 18, Abbas Square, Block# 07",
        "phone": "ZAHID BHAI 923312155591",
        "lat": 24.9276226,
        "lng": 67.068098
    },
    {
        "name": "WASEEM AUTOS",
        "address": "Akbar Road Showroom-13, Opp Masjid-E-Aqsa",
        "phone": "WASEEM 923002034040",
        "lat": null,
        "lng": null
    },
    {
        "name": "Watan Electronics",
        "address": "Shop # 2 Suparco Road Mosimyat Ayub Gooth Near Khyber Hotel Suparco Road Mosimayat",
        "phone": "Agha Khan 923003736353",
        "lat": null,
        "lng": null
    },
    {
        "name": "YASEEN BROTHER",
        "address": "Shop # 84-85,Cattle Colony Shah Latif Town Landhi",
        "phone": "YASEEN 923466420810",
        "lat": 24.8408558,
        "lng": 67.1938494
    },
    {
        "name": "YASMAS AUTOS",
        "address": "Shop#B-4, Kashmir Colony, Near Truck Stand, Main Korangi Road, Kharachi",
        "phone": "TARIQ 923328274707",
        "lat": 24.9151252,
        "lng": 67.0585337
    },
    {
        "name": "yousuf & Brothers",
        "address": "Main University Road, Safora Chowk, Block-7 Gulistan-E- Johar, Karachi Mr. Abdul Rehman",
        "phone": "Habib ur Rehman 923212339447",
        "lat": 26.9321187,
        "lng": 67.7174083
    },
    {
        "name": "ZAHIR SHAH",
        "address": "Korangi Mills Area Main Bazar, Sector 8/B Hazrat Bilal Colony",
        "phone": "USMAN 923332123634",
        "lat": 24.8478476,
        "lng": 67.1342808
    },
    {
        "name": "ZAR MUHAMMAD AUTOS",
        "address": "SHOP NO 449, WALI MUHAMMAD ROAD, KEMARI.",
        "phone": "ZAR MUHAMMAD 923462883751",
        "lat": 24.819949,
        "lng": 66.9748366
    },
    {
        "name": "ZANIB BIBI",
        "address": "Saddar , Karachi Shop# 03 , Kdc Market , Akbar Road",
        "phone": "IRFAN 923143635312",
        "lat": 24.8790556,
        "lng": 66.9882548
    },
    {
        "name": "Shahab Motor",
        "address": "Hameedan Chowk, Tehsil Takht-E-Nusrati Distt Karak",
        "phone": "Suleman Khan 923428088329",
        "lat": 33.1577143,
        "lng": 71.2156766
    },
    {
        "name": "Yahya Pwr Motorcycle Agency",
        "address": "Sahir Market, Ambiri Chowk, Karak",
        "phone": "Mr. Fiaz 923449795452",
        "lat": 33.1160464,
        "lng": 71.0950863
    },
    {
        "name": "Saeed Autos",
        "address": "Main Road Kashmor",
        "phone": "Haji Raza Muhamamd 923337537737",
        "lat": 28.4136874,
        "lng": 69.9290468
    },
    {
        "name": "Bhullay Shah Autos",
        "address": "Kot Ghulam Muhammad Katchery Road , kasur",
        "phone": "Mr. Sabir Ameen & Haji Ameen 923214171695",
        "lat": 31.1175143,
        "lng": 74.4478314
    },
    {
        "name": "SAIM AUTOS",
        "address": "OPPOSITE MODEL BAZAR OLD LAVI ADDA ,KASUR",
        "phone": "MUHAMMAD USMAN BUTT 923217055865",
        "lat": 31.1175143,
        "lng": 74.4478314
    },
    {
        "name": "Madina Trader",
        "address": "Dunyapur Road, Kehror Pakka",
        "phone": "Mr.Mahr ishfaq 923007816593",
        "lat": 29.6261624,
        "lng": 71.9174361
    },
    {
        "name": "Ahmed Trader",
        "address": "Atten : Malik Aslam Dogar",
        "phone": "Mr. Malik Aslam Dogar 923007384048",
        "lat": null,
        "lng": null
    },
    {
        "name": "Al- Madina Autos",
        "address": "Near OK Service Station Khairpur Mirus",
        "phone": "Naveed Shiahk 923049305050",
        "lat": 27.5729275,
        "lng": 68.750915
    },
    {
        "name": "Bhaiya Pwr Centre",
        "address": "Chungi# 4, Ali pur Road Khan Garh",
        "phone": "Mr.Ajmal Khan 923007870787",
        "lat": 32.4883617,
        "lng": 74.5352667
    },
    {
        "name": "Usmania Motors",
        "address": "Quaid-e-Millat Road Khanpur",
        "phone": "Mr. Ghulam Mustafa 923337472316",
        "lat": 32.211611,
        "lng": 73.575613
    },
    {
        "name": "Qadria Motors",
        "address": "Quaid-e-Millat Road Khanpur",
        "phone": "Mr.Abdul Razaq 923017644364",
        "lat": 32.211611,
        "lng": 73.575613
    },
    {
        "name": "Tariq Motors",
        "address": "National highway road,Khanbela",
        "phone": "Mr.tariq 923006752995",
        "lat": null,
        "lng": null
    },
    {
        "name": "Al-Rehman Motor",
        "address": "Girls college chowk,Khanewal",
        "phone": "Mr. Amir Mehmood 923006893679",
        "lat": 30.3022528,
        "lng": 71.9278916
    },
    {
        "name": "Bhutta Motor",
        "address": "Near Al-Hadees Chowk, Khanewal",
        "phone": "Mr. Azher 923067891000",
        "lat": 30.3022528,
        "lng": 71.9278916
    },
    {
        "name": "CITY AUTOS",
        "address": "G M KHANA ROAD KHIPRO",
        "phone": "SALEEM 923003790806",
        "lat": 25.7112697,
        "lng": 69.1323869
    },
    {
        "name": "SHAHID ELECTRONICS",
        "address": "Near Nadra Office,Naya Adda Khudian Khas",
        "phone": "RANA SHAHID ALI 923008472822",
        "lat": 30.9940197,
        "lng": 74.276948
    },
    {
        "name": "SALMAN AUTOS",
        "address": "Khuzdar Agha Abdul Zahir Market Near Jamia Masjid Khuzdar",
        "phone": "MUSTAQ 923352180324",
        "lat": null,
        "lng": null
    },
    {
        "name": "Zeeshan Motors",
        "address": "Highway Road, Kichiwala",
        "phone": "Mr. Ghulam Mustafa 923006634822",
        "lat": null,
        "lng": null
    },
    {
        "name": "Asad Motors",
        "address": "Chaudhary Auto Plaza G.T road Kot Addu",
        "phone": "Mr.Abdul Haalim Khan 923361079460",
        "lat": 30.4692602,
        "lng": 70.9678776
    },
    {
        "name": "Dawood Autos Exchange",
        "address": "G.T Road Kot Addu",
        "phone": "Mr.M.Ashiq 923416426277",
        "lat": 30.4692602,
        "lng": 70.9678776
    },
    {
        "name": "New Imtiaz Autos",
        "address": "Main Road kot Banglo",
        "phone": "Islam Gopang 923063622022",
        "lat": 27.3608895,
        "lng": 68.7244911
    },
    {
        "name": "New Awaisia Motor",
        "address": "Dera Road Kot Chuta",
        "phone": "Mr. Saif Ullah Khan 923338572585",
        "lat": null,
        "lng": null
    },
    {
        "name": "Naseeb Motor",
        "address": "Railway Road Kot Mithan",
        "phone": "Mr.Fida hussain 923336433334",
        "lat": 28.9589139,
        "lng": 70.3654047
    },
    {
        "name": "Ghous Traders",
        "address": "Layyah Road Kot Sultan",
        "phone": "Mr. Umer Hayat 923087535793",
        "lat": 30.7355321,
        "lng": 70.9355358
    },
    {
        "name": "Lucky Motor",
        "address": "Chowk Hashim Taunsa",
        "phone": "Mr.Haji M.Yameen 923087717538",
        "lat": null,
        "lng": null
    },
    {
        "name": "kotli auto",
        "address": "mughal plaza near distt court pind rad kotli",
        "phone": "Mr Muhammad masood saarfraz 923008507838",
        "lat": null,
        "lng": null
    },
    {
        "name": "Vicky Traders",
        "address": "84-Mcleod Road , Lahore",
        "phone": "MR. BASHARAT KHALIL 923214168330",
        "lat": 31.5770986,
        "lng": 74.3343967
    },
    {
        "name": "Auto Junction",
        "address": "P # 39, BLOCK # 1, SECTOR C 1, COLLEGE ROAD, BUTT CHOWK TOWNSHIP, LAHORE",
        "phone": "MR. S. SHAHID AHMAD 923343804336",
        "lat": 31.5656822,
        "lng": 74.3141829
    },
    {
        "name": "INAM TRADERS",
        "address": "148-C Huma Block Main Boulevard Allama Iqbal Town, Lahore",
        "phone": "Innam Jillani 923004106040",
        "lat": 31.5656822,
        "lng": 74.3141829
    },
    {
        "name": "RIMSHA ELECTRONICS",
        "address": "Haq Aarcid, 9-10-11-B, Commercial Shaie Shah Colony, Riawand Road, Lahore",
        "phone": "MUHAMMAD SALEEM 923334796215",
        "lat": 31.5656822,
        "lng": 74.3141829
    },
    {
        "name": "HAQ BAHU TRADERS",
        "address": "Azeem Building Bara Sanda Bund Road Lahore",
        "phone": "MUHAMMAD ARSHAD 923004855460",
        "lat": 31.5662166,
        "lng": 74.3122252
    },
    {
        "name": "PEER MUDRSA CORPORATION",
        "address": "Cot Muhammad Hussain Stop, Shah Pur kanjran,Lahore",
        "phone": "ABDUL GHAFAR GOGA 923009412751",
        "lat": 31.5656822,
        "lng": 74.3141829
    },
    {
        "name": "JOYA CORPORATION",
        "address": "532-CII 3, Green Town , Near Bagrian Chowk, Lahore",
        "phone": "MUHAMMAD ZULFIQAR ALI 923009438377",
        "lat": 31.5656822,
        "lng": 74.3141829
    },
    {
        "name": "SHER-E-RABBANI CORPORATION",
        "address": "Lahoraah Wala Khoo, 26 KM Multan Road ,Lahore",
        "phone": "MUHAMMAD ISHAAQ 923127676053",
        "lat": 31.5656822,
        "lng": 74.3141829
    },
    {
        "name": "A AND U CORPORATION",
        "address": "Defense Garden Ashyana Road Bank Stop , Lahore",
        "phone": "ABDUL GHAFOOR 923334203858",
        "lat": 31.5656822,
        "lng": 74.3141829
    },
    {
        "name": "RANA BUSINESS CORPORATION",
        "address": "Shalimar Link Road, Opposite Police Petrol Pump,Lahore",
        "phone": "RANA KHALID 923334214154",
        "lat": 31.5656822,
        "lng": 74.3141829
    },
    {
        "name": "DHILLON CORPORATION",
        "address": "Stop Suwa Asal , 31 KM Mian Ferozpur Road,Opp PSO Pump Lahore",
        "phone": "AMIR ALI 923009468999",
        "lat": 31.5262147,
        "lng": 74.4469972
    },
    {
        "name": "GHOUS AUTOS",
        "address": "Kothi Stop , Rampura GT Road Lahore",
        "phone": "923205502299",
        "lat": 31.5662166,
        "lng": 74.3122252
    },
    {
        "name": "AL-KARIM ELECTRONICS",
        "address": "17-KM Ferozepur Road Shami Auto Market Lahore",
        "phone": "923004458063",
        "lat": 31.5133357,
        "lng": 74.3464219
    },
    {
        "name": "SINDHU ELECTRONICS",
        "address": "37-P Sabzar Chowk Toky Wali Puli Kharak Nala Road Lahore",
        "phone": "923214100551",
        "lat": 31.5662166,
        "lng": 74.3122252
    },
    {
        "name": "HOO-AL-ASHRAF ELECTRONICS",
        "address": "78-3-C1, Near Choras Tanki , Green Town , Lahore",
        "phone": "923214460774",
        "lat": 31.5656822,
        "lng": 74.3141829
    },
    {
        "name": "ZUNAIRA TRADING COMPANY",
        "address": "18-Sultan Ahmad Road Ichra, Lahore",
        "phone": "JAVAID IQBAL 923004441695",
        "lat": 31.5656822,
        "lng": 74.3141829
    },
    {
        "name": "Shakeel Motors",
        "address": "Bangla Road, laliyan",
        "phone": "Mr. Tanveer 923451117787",
        "lat": null,
        "lng": null
    },
    {
        "name": "Pak Rehman Trader",
        "address": "Chobara Road Layah",
        "phone": "Mr. Ijaz ur Rehman 923075052395",
        "lat": null,
        "lng": null
    },
    {
        "name": "Haseeb Pwr Centre",
        "address": "Chobara Road, Layyah",
        "phone": "Mr. Akram 923008761971",
        "lat": 30.9681007,
        "lng": 70.9433836
    },
    {
        "name": "Desert Motors",
        "address": "Adda Hassanabad Near Thal Petrolium Tehsil Chobra",
        "phone": "Mr.M.Yaseen 923017220695",
        "lat": null,
        "lng": null
    },
    {
        "name": "Tahir Power Centre",
        "address": "Chowk Azam Road Opp Celebration Hotel Near Grid Staion Layyah",
        "phone": "Mr. Tahir 923006768139",
        "lat": null,
        "lng": null
    },
    {
        "name": "Morani Pwr Centre",
        "address": "Kalma Chowk Kot addu Road layyha",
        "phone": "M. Arshad 9230051974650",
        "lat": null,
        "lng": null
    },
    {
        "name": "Shahzaib Motor",
        "address": "Vehari Road Ludden",
        "phone": "Mr.Shahzaib 923006209425",
        "lat": null,
        "lng": null
    },
    {
        "name": "New ittefaq Motor",
        "address": "Multan Road, Mailsi",
        "phone": "Mr. Tariq 923003412009",
        "lat": 30.0179493,
        "lng": 71.7903269
    },
    {
        "name": "SHAH JEE AUTOS",
        "address": "DHABEJI",
        "phone": "SHROZ 923000351080",
        "lat": 24.8127692,
        "lng": 67.5011886
    },
    {
        "name": "AL NOOR AUTOS",
        "address": "MAIN NATIONAL HIGHWAY",
        "phone": "ABDUL DASTAGIR 923152770017",
        "lat": 31.4699586,
        "lng": 74.2375304
    },
    {
        "name": "Utban motor",
        "address": "near police station bafa doraha tehsi bafa hazara mansehra",
        "phone": "Mr.Muhammad Naeem Khan 923018106793",
        "lat": 34.3967496,
        "lng": 73.315436
    },
    {
        "name": "Ali auto",
        "address": "Sugar mill road doshera chawk mardan",
        "phone": "Mr Ahmed Ali 923005700888",
        "lat": 34.40812,
        "lng": 72.0621702
    },
    {
        "name": "Al Falah auto/Mardan Motors",
        "address": "Shamsi Road Mardan",
        "phone": "Mr.Muhammad Tufai 923339883555",
        "lat": 34.1918329,
        "lng": 72.0516341
    },
    {
        "name": "Afridi sp centre",
        "address": "bilal market koragh chowk by pass road mardan",
        "phone": "Mr.hazrat Syed 923449075712",
        "lat": 34.1988392,
        "lng": 72.0454437
    },
    {
        "name": "AL-RAUF BARGEN CENTER",
        "address": "Mastung , Balochistan Al Sarwari Bargen, Main Bazar",
        "phone": "ABDUL RAUF 923337925825",
        "lat": 34.1462225,
        "lng": 73.2115639
    },
    {
        "name": "MOHID TRADERS",
        "address": "Shop # 6,7 , Rasheed Market, 86-Macloed Road, Lahore",
        "phone": "Mr. Muhammad Amir 923009436975",
        "lat": 31.5656822,
        "lng": 74.3141829
    },
    {
        "name": "MEHAR AUTOS",
        "address": "RADHAN ROAD",
        "phone": "AJAZ ALI 923003424242",
        "lat": null,
        "lng": null
    },
    {
        "name": "Balouch Autos",
        "address": "Thehri Road Mehrabpur",
        "phone": "Ghulam Muhamamd 923003201928",
        "lat": 27.0955911,
        "lng": 68.3393997
    },
    {
        "name": "Arsalan Trader",
        "address": "Tolamba road,Mina Chanu",
        "phone": "Mr. Javaid iqbal 923006887232",
        "lat": null,
        "lng": null
    },
    {
        "name": "Sajawal Corporation",
        "address": "Mohallah Mohany Khail, Mooch Distt Mian Wali",
        "phone": "Mr. Sajawal Khan 923018699358",
        "lat": 31.5858602,
        "lng": 74.3086759
    },
    {
        "name": "Fakhar Spr Pwr Centre",
        "address": "Watta Kheil Road Mianwali",
        "phone": "Mr. Fakhar Ullah Khan 923003402153",
        "lat": 32.2503936,
        "lng": 71.7468322
    },
    {
        "name": "Waghah Trader",
        "address": "Baldia Bypass Road , Minchanabad",
        "phone": "Mr.Afzal 923018688571",
        "lat": 30.0014777,
        "lng": 73.27131
    },
    {
        "name": "New Kashmir auto",
        "address": "Allama iqbal road mir pur",
        "phone": "Mr. Amjad Mushtaq 923005482668",
        "lat": 31.5492159,
        "lng": 73.4982571
    },
    {
        "name": "Royal auto",
        "address": "Sector f/1 kotli defence road mirpur ajk",
        "phone": "Mr. Muhammad Latif 923415303761",
        "lat": 33.1410135,
        "lng": 73.7628103
    },
    {
        "name": "Haji Auto",
        "address": "Kotli road sector f/1 mirpur",
        "phone": "Mr.Shoaib Aqib 923485514961",
        "lat": 33.1486351,
        "lng": 73.7482102
    },
    {
        "name": "Yasir Auto Showroom",
        "address": "Near Aftab Park, Sector F-1, Kotli Road, Mirpur A.K",
        "phone": "Mr. Nasir Bashir 923425227733",
        "lat": 33.1486351,
        "lng": 73.7482102
    },
    {
        "name": "Kundan Autos",
        "address": "Mirpur Mathelo",
        "phone": "Amit kumar 923363245441",
        "lat": 28.0194368,
        "lng": 69.5526287
    },
    {
        "name": "M.Sikandar Autos",
        "address": "Dadu Road Moro",
        "phone": "Riaz bughio 923012745655",
        "lat": 26.6676399,
        "lng": 67.9948696
    },
    {
        "name": "Attif Pwr Centre",
        "address": "Indus Hughway Road, Muhammad Pur Deewan",
        "phone": "Mr.Muhammad Attif 923336458140",
        "lat": null,
        "lng": null
    },
    {
        "name": "Tipu Motors",
        "address": "Dera Adda Chowk,Multan",
        "phone": "Mr. Zain Bhutta 923076666020",
        "lat": 30.1888025,
        "lng": 71.4511385
    },
    {
        "name": "A.H Autos",
        "address": "Railway Road Near Pso Pump,Multan",
        "phone": "Mr. Nasrullah 923336467517",
        "lat": 30.197838,
        "lng": 71.4719683
    },
    {
        "name": "Waqas Elcectrics",
        "address": "Abdullah Market Bosan Road Adda Band Multan",
        "phone": "Mr.Nasrullah Sb 923067555165",
        "lat": null,
        "lng": null
    },
    {
        "name": "Zakriya Autos",
        "address": "Dera Adda Chowk,Multan",
        "phone": "Mr. Nasir 923008634484",
        "lat": 30.1888025,
        "lng": 71.4511385
    },
    {
        "name": "Ruby Pwr Point",
        "address": "Opp. Nishat School, Katchery Road, Multan",
        "phone": "Khawaja Shahid 923018388030",
        "lat": 30.197838,
        "lng": 71.4719683
    },
    {
        "name": "Taj Corporation",
        "address": "Ansari Chowk, Multan",
        "phone": "Mr. Asif Ali 923008626065",
        "lat": 30.183385,
        "lng": 71.5029059
    },
    {
        "name": "Punjab Auto Trader",
        "address": "Vehari Road Opp Grid Station,Multan",
        "phone": "Ch. Laquait Ali 923027551501",
        "lat": 30.197838,
        "lng": 71.4719683
    },
    {
        "name": "Chaudhary Traders",
        "address": "Bahawalpur Bypas Chowk Opp. Shaukat Centre, Multan",
        "phone": "Ch. Aqeel Anwar 923017558850",
        "lat": 30.197838,
        "lng": 71.4719683
    },
    {
        "name": "Sundhal Corporation",
        "address": "Sundhal Corporation",
        "phone": "Mr. Iqbal 923005296306",
        "lat": null,
        "lng": null
    },
    {
        "name": "Umer Shah Autos",
        "address": "Near Allied bank Rahseed Abad Multan",
        "phone": "Mr.Syed Umer Shah 923027554001",
        "lat": 30.1853025,
        "lng": 71.5112687
    },
    {
        "name": "Hannan Crop.",
        "address": "Near Colony Taxtile Mill Muzaffarabad",
        "phone": "Mr. Younis 923008637138",
        "lat": null,
        "lng": null
    },
    {
        "name": "Ruby Corporation",
        "address": "Shop # 17 Al-Rehman Tower, Opp. Babar Theather Katchery Road, Multan",
        "phone": "Khawaja Shoaib 923006303086",
        "lat": 30.197838,
        "lng": 71.4719683
    },
    {
        "name": "Mughal Autos",
        "address": "Near Rehman Chowk Mda Road, Pull Bararan, Multan",
        "phone": "Sajjad Mughal 923006330091",
        "lat": 30.197838,
        "lng": 71.4719683
    },
    {
        "name": "Diamond Corp.",
        "address": "Opposite Power Suzuki Chowk Saddu Hassam Multan",
        "phone": "Mr. Tariq 923006320538",
        "lat": null,
        "lng": null
    },
    {
        "name": "Faraz Autos",
        "address": "Gulgasht Colony Multan",
        "phone": "Mr. Faraz 923017512713",
        "lat": 30.222123,
        "lng": 71.472631
    },
    {
        "name": "Ahmed Motor",
        "address": "Bosan Road Multan",
        "phone": "Mr.Fakhar Abbass 923007805390",
        "lat": 30.2271412,
        "lng": 71.4783781
    },
    {
        "name": "Niaz Trader",
        "address": "Suraj Kund Road, Chowk Shah Abbas, Mohallah Chah Arikay Wala, Multan",
        "phone": "Mr. Malik Habib 923036103008",
        "lat": 30.197838,
        "lng": 71.4719683
    },
    {
        "name": "Abid Auto",
        "address": "40- Ali Park, IMT Stop Near Zainabia Hostital, lahore",
        "phone": "Mr. Yasir Arafat 923344311462",
        "lat": 31.5656822,
        "lng": 74.3141829
    },
    {
        "name": "Zeeshan Trader - Multan",
        "address": "Azmat Wasti Road Near Banl Alfalah Dera Addah Multan",
        "phone": "Mr.Zeeshan 923067484840",
        "lat": null,
        "lng": null
    },
    {
        "name": "Chanab Motor",
        "address": "Near Naz Cinema Vehari Road Multan",
        "phone": "Mr.Aslam 923467093123",
        "lat": 30.1979743,
        "lng": 71.4804931
    },
    {
        "name": "Imran Autos",
        "address": "Chowk Dera Adda Multan",
        "phone": "Mr.Haji Wajid Ali 92614548126",
        "lat": 30.0254823,
        "lng": 72.2525865
    },
    {
        "name": "Karachi Electronics",
        "address": "Al-Quraish Sher Shah Road Mutlan",
        "phone": "Mr.Habib ur Rehman 923003689160",
        "lat": null,
        "lng": null
    },
    {
        "name": "BULAND TRADERS",
        "address": "SHURA KOTHI ROAD,HIRA CHOWK,NANKANA SAHIIB",
        "phone": "BULAND IQBAL & KAMAL HAIDER 923008485226",
        "lat": null,
        "lng": null
    },
    {
        "name": "Mehar Traders",
        "address": "Fauji garian Stop, Niazi Adda Lahore",
        "phone": "Mr. Mehar Shahbaz 923008498692",
        "lat": 34.0159803,
        "lng": 71.6001408
    },
    {
        "name": "ARSALN ENTERPRISES",
        "address": "Noshki Mengal Street, Near Habib Bank, Jinnah Road, Noshki - Quetta",
        "phone": "ALI BUX MENGAL 923327993897",
        "lat": 30.1916268,
        "lng": 67.0007561
    },
    {
        "name": "Five Star auto",
        "address": "Main Mardan Road Shah Gul Stop Nowshera",
        "phone": "Mr.Shafaqat Ali 923219731853",
        "lat": 33.9644866,
        "lng": 72.2054837
    },
    {
        "name": "fauji sp centre",
        "address": "shah gul art shop mardan road nowshera",
        "phone": "Mr.Nazim shah 923339176582",
        "lat": 34.0050241,
        "lng": 71.9798844
    },
    {
        "name": "Shaheen Corp.",
        "address": "Noor Shah Road, Ahmed Nagar, Okara",
        "phone": "Mr. Manzoor Ahmed 923334760652",
        "lat": 30.8091281,
        "lng": 73.4493301
    },
    {
        "name": "AL-Kareem Motors-Okara",
        "address": "Sarwar Chowk Okara",
        "phone": "MR. FARHAN IQBAL 923216588886",
        "lat": 30.808821,
        "lng": 73.4443522
    },
    {
        "name": "Madina Motors",
        "address": "Church Road Okara",
        "phone": "MUHAMMAD RAZZAQ 923457508622",
        "lat": 30.8137234,
        "lng": 73.4534368
    },
    {
        "name": "Friend Power centre",
        "address": "Shalimar chowk pind dadan khan",
        "phone": "Mr. Sohail Rauf 923005288912",
        "lat": 33.642561,
        "lng": 73.0898616
    },
    {
        "name": "Qadarmand enterprise",
        "address": "GT Road Main bazar Pabbi",
        "phone": "Mr.malik Qaise khan 923078501293",
        "lat": null,
        "lng": null
    },
    {
        "name": "Shahzaib Autos",
        "address": "By pass paka chang",
        "phone": "Kamran Araine 923003187362",
        "lat": null,
        "lng": null
    },
    {
        "name": "Sohaib International",
        "address": "Sahiwal Road Near High School Pakpattan",
        "phone": "Mr. Moeen 923008758450",
        "lat": 30.2697401,
        "lng": 73.0236903
    },
    {
        "name": "Al- Hamd Trader pano cantt",
        "address": "Pano Aquil cantt",
        "phone": "Javad chiodari 923332875705",
        "lat": null,
        "lng": null
    },
    {
        "name": "Askari Trading",
        "address": "sadar Bazzar Pano Aqil cantt",
        "phone": "zahid Hussain Bhatti 923063603320",
        "lat": null,
        "lng": null
    },
    {
        "name": "Pak Army Trader pano Aquil city",
        "address": "Near sindh bank Pano aquil city",
        "phone": "Mr. Imran Bhatti 92313425366",
        "lat": null,
        "lng": null
    },
    {
        "name": "Anam Motors",
        "address": "Multan Road , Pattoki",
        "phone": "Mr. Molvi Muhammad Latif 923004269059",
        "lat": 31.0307826,
        "lng": 73.8540085
    },
    {
        "name": "Zohaib Motors",
        "address": "Multan Road , Pattoki",
        "phone": "923004845860",
        "lat": 31.0307826,
        "lng": 73.8540085
    },
    {
        "name": "Lahore Metro Center",
        "address": "287-main peco road, kot lakpat, railway station, Lahore",
        "phone": "Mr. Sohail 923214646566",
        "lat": 31.5656822,
        "lng": 74.3141829
    },
    {
        "name": "Bhatti Autos",
        "address": "Rajana Road Peer Mahal",
        "phone": "Mr.Abrar Hussain 923481867520",
        "lat": 30.7718406,
        "lng": 72.433114
    },
    {
        "name": "Malik Zeeshan auto",
        "address": "Faqira abad street 6 near railway station Peshawar",
        "phone": "Mr.Arshad Ali 923339088425",
        "lat": 34.0179762,
        "lng": 71.5869468
    },
    {
        "name": "Khazana power centre",
        "address": "Al hussain market nasapa ballah charsadda road peshawar",
        "phone": "Mr. Gul Muhammad 923130080915",
        "lat": 33.9844606,
        "lng": 71.5265957
    },
    {
        "name": "Furqan Autos",
        "address": "Hillan Chowki, Gujrat to Sargodha Road, Phalia",
        "phone": "Mr. Imran 923086843912",
        "lat": 32.4329036,
        "lng": 73.577159
    },
    {
        "name": "Ashraf Autos",
        "address": "Gujrat to Sargodha Road, Parianwali",
        "phone": "Mr. Muhammad Ashraf 923006243882",
        "lat": null,
        "lng": null
    },
    {
        "name": "Haris & Hamza motor",
        "address": "near hasan and son kachary road pindi ghaib",
        "phone": "Mr. Abid Mehmood 923018894436",
        "lat": null,
        "lng": null
    },
    {
        "name": "New Ittefaq Motors",
        "address": "Main Bazar, qaboola",
        "phone": "Mr. Sheik Akram 923008734226",
        "lat": 30.1830328,
        "lng": 73.065057
    },
    {
        "name": "Hamza Corporation",
        "address": "G.T Road, Near Mcb, Qasba Gujrat",
        "phone": "Mr. Abdul Gafoor Khan 923317915555",
        "lat": 30.1620449,
        "lng": 70.9551559
    },
    {
        "name": "Ahmed Trading Corp",
        "address": "Near Farooq Azam Masjid, Qasim Bela",
        "phone": "Mr. Maqbool 923087337513",
        "lat": 30.191932,
        "lng": 71.399159
    },
    {
        "name": "ALI & SONS",
        "address": "Near Kdc Building , Akber Road Shop# 04 , Memon Market Apartment",
        "phone": "KASHIP 923132388378",
        "lat": null,
        "lng": null
    },
    {
        "name": "Wasif auto centre",
        "address": "Auto market Shahi Road R.Y.Khan",
        "phone": "Mr.Zulfiqar 923007825340",
        "lat": 24.9201462,
        "lng": 67.1041898
    },
    {
        "name": "New M.M pwr Ecntre",
        "address": "Opposite Punjab college khan pur Road",
        "phone": "Mr. Jam Madni 923048100172",
        "lat": 33.6379883,
        "lng": 73.0632556
    },
    {
        "name": "Al-Madina Motor",
        "address": "Chowk Azam City, Adda Rafiqanad",
        "phone": "Mr. GhulAm Ali 923447320770",
        "lat": null,
        "lng": null
    },
    {
        "name": "Bismillah Electronics",
        "address": "Mian Bazar, Dubai Town, Raiwand Road, Lahore",
        "phone": "Mr. Habib Ullah 923004603761",
        "lat": 31.5656822,
        "lng": 74.3141829
    },
    {
        "name": "Ameen Autos",
        "address": "Jail Road, Rajanpur",
        "phone": "Mr. M Ameen 923336475773",
        "lat": 29.1002542,
        "lng": 70.3378699
    },
    {
        "name": "Bike Place",
        "address": "shop no h-135 A Saraan committee chock Rawalpindi",
        "phone": "Mr. Naveed Khan 9231420022005",
        "lat": null,
        "lng": null
    },
    {
        "name": "New Zafar auto",
        "address": "k-606 ch sarfraz road murree road Rawalpindi",
        "phone": "Mr.Zafar mehmood 923119585728",
        "lat": 33.5695006,
        "lng": 73.0667911
    },
    {
        "name": "Utman auto",
        "address": "shop 1-2-3 colony stop farooq azam road Rawalpindi",
        "phone": "Mr. Sajjad Hussain 923159664442",
        "lat": 33.5695006,
        "lng": 73.0667911
    },
    {
        "name": "Pak Trading company",
        "address": "n-97 allahdad road babrar market waris khan stop Rawalpindi",
        "phone": "Mr. Muhammad Bilal Mughal 923365566222",
        "lat": 33.5441611,
        "lng": 71.5250875
    },
    {
        "name": "Mohsin Traders",
        "address": "Mohallah chman abad misrrial road dhoke syden Rawalpindi",
        "phone": "Mr.Mohsin Hameed 923334222291",
        "lat": null,
        "lng": null
    },
    {
        "name": "Tariq auto",
        "address": "Khana road trolli road Rawalpindi",
        "phone": "Mr.Jameel ahmed 923155773339",
        "lat": 33.5695006,
        "lng": 73.0667911
    },
    {
        "name": "Mashallah Autos",
        "address": "Near Millat High School, G.t Road, Renala Khurd",
        "phone": "923226942011",
        "lat": 30.8782508,
        "lng": 73.5998771
    },
    {
        "name": "Sidiqi Spr pwr",
        "address": "Alipur Road, Rohilanwali",
        "phone": "Mr.Mubashir 923017547122",
        "lat": 29.3884796,
        "lng": 70.91691
    },
    {
        "name": "Tariq Spr pwr",
        "address": "Alipur Road, Rohilanwali",
        "phone": "Mr.tariq 923007488309",
        "lat": 29.3884796,
        "lng": 70.91691
    },
    {
        "name": "Auzair autos",
        "address": "Bunair road distt mardan Rustam",
        "phone": "Mr.Auzair 923004839030",
        "lat": 34.346941,
        "lng": 72.2814528
    },
    {
        "name": "Wains Pwr Centre",
        "address": "C/O Al-Masoom Trader, Baldia Bypass Road Minchanabad",
        "phone": "Mian Tayyaib 923008697793",
        "lat": null,
        "lng": null
    },
    {
        "name": "Mian Autos & Bike Center",
        "address": "K.L.P Road Sadiqabad",
        "phone": "Mr. Sajjad 0300-3723442",
        "lat": 33.6341211,
        "lng": 73.0764433
    },
    {
        "name": "Bhai Bhai Motors",
        "address": "Church Road, Sahiwal",
        "phone": "923218691664",
        "lat": 30.6629139,
        "lng": 73.1056134
    },
    {
        "name": "New Khan Motor",
        "address": "Near Taxila toll plaz Sang jani",
        "phone": "Mr.Abdul ghafoor 923355589764",
        "lat": null,
        "lng": null
    },
    {
        "name": "Zul Kaifal Autos",
        "address": "Bannu Road Saraye Naurang",
        "phone": "Mr. Tufail khan 923018971787",
        "lat": null,
        "lng": null
    },
    {
        "name": "New Shabzada auto",
        "address": "main bazar sae dheri distt charsadda",
        "phone": "Mr.Flack naz bacha 923068785961",
        "lat": null,
        "lng": null
    },
    {
        "name": "Al-SIDDIQUE MOTORS",
        "address": "Sargodha (Society Colony) House No 80 , Sargodha",
        "phone": "HAMMAD HASSAN 923447632489",
        "lat": 32.0836514,
        "lng": 72.676461
    },
    {
        "name": "Saim Pwr Center",
        "address": "Indus Highway Road, Shadan lound",
        "phone": "Mr. M Waqas Khan 923366303920",
        "lat": null,
        "lng": null
    },
    {
        "name": "SUBHANALLAH CORPORATION",
        "address": "MUGHALPURA CHOWK, NEAR LASANI BURGER, SHALIMAR LINK ROAD, LAHORE",
        "phone": "MR. MUHAMMAD FAISAL 923004222700",
        "lat": 31.5656822,
        "lng": 74.3141829
    },
    {
        "name": "shergarh auto",
        "address": "fazal e rabani market mardan road shergarh",
        "phone": "Mr. Shafiq Muhammad 923005701677",
        "lat": 32.271384,
        "lng": 72.265772
    },
    {
        "name": "AL-SYED POWER AUTOS",
        "address": "Depal Pur Road Shergarh",
        "phone": "SYED HASSAN SHAH 923454458594",
        "lat": 32.271384,
        "lng": 72.265772
    },
    {
        "name": "Ajwa Traders",
        "address": "Jhang road Near Sabzi madni Shorkot City",
        "phone": "Mr.Rana Munawer Amir 923217703232",
        "lat": 30.8349067,
        "lng": 72.0764093
    },
    {
        "name": "Khawaja Pwr Point",
        "address": "Jalal Pur Road, Shuja Abad",
        "phone": "Mr. Asim Madni 923042162153",
        "lat": null,
        "lng": null
    },
    {
        "name": "Khawaja Madni Motors",
        "address": "Jalal Pur Road, Shuja Abad",
        "phone": "Mr. Asim Madni 923042162153",
        "lat": null,
        "lng": null
    },
    {
        "name": "Butt Motors",
        "address": "Shahab Pura Road Near Buta Filling Station, Sialkot",
        "phone": "MR. JALEEL BUTT 923338603403",
        "lat": 32.4935378,
        "lng": 74.5411575
    },
    {
        "name": "Iqbal Traders",
        "address": "Sahiwal Havelilakha road Sikandar Chowk (Pakpattan)",
        "phone": "Mr. iqbal Watoo 923447437000",
        "lat": 30.6537784,
        "lng": 73.1187843
    },
    {
        "name": "AL badar electronic",
        "address": "G T road sohawa",
        "phone": "Mr.Muhammad Shafaqat 923349890150",
        "lat": 33.7690615,
        "lng": 73.0717605
    },
    {
        "name": "Bismillah Qinchchi showroom",
        "address": "g t road Sohawa",
        "phone": "Mr.rashid nawaz 923337128933",
        "lat": 33.7690615,
        "lng": 73.0717605
    },
    {
        "name": "Malik Hassan Traders",
        "address": "Lahore-Sargodha Road,Sukheki Mandi, Sheikhupura",
        "phone": "Mr. Malik Asif 923005614005",
        "lat": 31.7085285,
        "lng": 73.9864014
    },
    {
        "name": "Raza Autos",
        "address": "Station Road Sukkur",
        "phone": "Arslan Qureshi 923008315599",
        "lat": 27.7548411,
        "lng": 68.8066056
    },
    {
        "name": "Aslam Autos",
        "address": "Station Road Sukkur",
        "phone": "Aslam Khoso 923155598951",
        "lat": 27.7548411,
        "lng": 68.8066056
    },
    {
        "name": "Hassan Autos Exchang",
        "address": "shop#10 ayub gate Sukkur",
        "phone": "M.Danish 923125022574",
        "lat": 27.6989802,
        "lng": 68.8662057
    },
    {
        "name": "Hurmain Motors",
        "address": "New Goth Sukkur",
        "phone": "Ahsan Bandhani 923337164896",
        "lat": 27.7069861,
        "lng": 68.8476523
    },
    {
        "name": "Sajid auto",
        "address": "Near Gar Adda Manzoor market Marghuz swabi",
        "phone": "Mr.Sajid Islam 923005688183",
        "lat": 34.0994549,
        "lng": 72.5314737
    },
    {
        "name": "Adil autos",
        "address": "umar plaza near police line chowk new bypass mingora swat",
        "phone": "Mr.Muhammad Arif 923468785200",
        "lat": 34.6992244,
        "lng": 72.2630972
    },
    {
        "name": "Bismillah Bike Centre",
        "address": "Sabzi Mandi Road, Toba Tek Singh",
        "phone": "Mr. Yasir 923006199032",
        "lat": 30.7908797,
        "lng": 72.2466426
    },
    {
        "name": "Arman Ashangi Pwr Centre",
        "address": "Dera Link Road, Taank",
        "phone": "Qutab Zada 923402228232",
        "lat": null,
        "lng": null
    },
    {
        "name": "Shah Auto/Hamza Autos",
        "address": "Haji Naik Ammal Market,Takkar Road Takht Bhai",
        "phone": "Mr.Shah Hussain 923459359305",
        "lat": 34.302162,
        "lng": 71.8962061
    },
    {
        "name": "Madina auto centre",
        "address": "haji ali gohar khan kalay narai wala malakand road takht bhai",
        "phone": "Mr.Iftikhar Ahmed 923003551457",
        "lat": 34.2776137,
        "lng": 71.9300465
    },
    {
        "name": "Raja motor",
        "address": "Rawalpindi Road talagang",
        "phone": "Mr. Muhammad Iqbal 923025691760",
        "lat": 32.9276269,
        "lng": 72.8066202
    },
    {
        "name": "B.M MOTOR",
        "address": "Mian wali road tala gang",
        "phone": "Muhammad ameen 923445765143",
        "lat": 30.2988207,
        "lng": 71.9519491
    },
    {
        "name": "Haris Auto",
        "address": "hari chand road jindi bazar the& p.o tangi distt charsadda",
        "phone": "Mr.Sher zaman 923479056463",
        "lat": null,
        "lng": null
    },
    {
        "name": "Friend Motor",
        "address": "Chowk Hashim Eid Gah Chowk Tunsa",
        "phone": "Mr. Sohail 923336050890",
        "lat": null,
        "lng": null
    },
    {
        "name": "Ibrahim Pwr centre",
        "address": "Tounsa Road Kot Addu",
        "phone": "Mr. M Ibrahim 923457162549",
        "lat": 30.4692602,
        "lng": 70.9678776
    },
    {
        "name": "Super shaheen auto",
        "address": "h m c road Taxila",
        "phone": "Mr. Abdul Jabbar 923215095704",
        "lat": 33.7825092,
        "lng": 72.7235902
    },
    {
        "name": "Siyal Motor",
        "address": "Rana Muhammad Ali & Brother Soap dealer ward#2 Chowk Azam Distt. Layyah",
        "phone": "Mr. Ramzan 923456128051",
        "lat": null,
        "lng": null
    },
    {
        "name": "Ali m/cycle centre",
        "address": "Royal shoping centre near nadara office f/jang road ternol",
        "phone": "Mr.Shaheed gul 923015660880",
        "lat": null,
        "lng": null
    },
    {
        "name": "Waseem Autos",
        "address": "Near Al-Madina Hotel Thari Mir Wah",
        "phone": "Mukhtiar Ahmed 923023121714",
        "lat": null,
        "lng": null
    },
    {
        "name": "Tufail SP Centre",
        "address": "Near PSO Pump Chunnian Road , Thengmorr",
        "phone": "Mr. Shahid Nawaz 923004410042",
        "lat": null,
        "lng": null
    },
    {
        "name": "Pakistan Motor",
        "address": "Near Sabzi Mandi Indus Hughway Road Tonsa",
        "phone": "Mr.Haji Abdul Rashed 923337616980",
        "lat": null,
        "lng": null
    },
    {
        "name": "Abuzar Bargain Centre",
        "address": "Main Jahangira Road Tour dher (Swabi)",
        "phone": "Mr.Amjid Ali 923018805056",
        "lat": 34.310127,
        "lng": 72.1025395
    },
    {
        "name": "CLASSIC AUTOS",
        "address": "20/17-B-1, Near Aslam Chowk, College Road, Township, Lahore",
        "phone": "Mr. Salman Raza 923219478231",
        "lat": 31.5656822,
        "lng": 74.3141829
    },
    {
        "name": "JAPAN MOTORCYCLE",
        "address": "Turbat Absaar Road , Near Turbat Medical Center",
        "phone": "SAEED 923233314983",
        "lat": 33.6043947,
        "lng": 72.868297
    },
    {
        "name": "Bhatti Motors",
        "address": "Club Road, Vehari",
        "phone": "Mr. Rafiq 923007720367",
        "lat": 30.0458903,
        "lng": 72.3568312
    },
    {
        "name": "Al-Hammad Motor",
        "address": "Vehari Road,Vijiyawala",
        "phone": "Mr.Kashif 923007224725",
        "lat": null,
        "lng": null
    },
    {
        "name": "Ali Hero centre",
        "address": "Sadat colony g t road Wah cantt",
        "phone": "Mr.Syed Muhammad Ali 923008323500",
        "lat": 33.7382406,
        "lng": 72.7961756
    },
    {
        "name": "Al Akhwan Motor",
        "address": "Liaq ali chowk Wah cantt",
        "phone": "Mr. Ali Aftab 923028503577",
        "lat": 33.7382406,
        "lng": 72.7961756
    },
    {
        "name": "R- Foji Autos",
        "address": "akri Road Zafrabad",
        "phone": "Ghulam Shabir Morijo 923013411094",
        "lat": null,
        "lng": null
    }
]